{
  "type": "FeatureCollection",
  "crs": {
    "type": "EPSG",
    "properties": {
      "code": 3067
    }
  },
  "features": [
    {
      "type": "Feature",
      "geometry": {
        "type": "Point",
        "coordinates": [270449.9776999997, 6636848.589]
      },
      "properties": {
        "id": 78010001,
        "number": 1,
        "name": "Hauensuolen kalliopiirrosalue",
        "municipality": "Hanko",
        "region": "Uusimaa"
      }
    },
    {
      "type": "Feature",
      "geometry": {
        "type": "Point",
        "coordinates": [383771, 6674108]
      },
      "properties": {
        "id": 91010019,
        "number": 2,
        "name": "Meilahden Humallahden pronssikautinen hautaröykkiö",
        "municipality": "Helsinki",
        "region": "Uusimaa"
      }
    },
    {
      "type": "Feature",
      "geometry": {
        "type": "Point",
        "coordinates": [312923.77969999984, 6661251.9957]
      },
      "properties": {
        "id": 220010017,
        "number": 3,
        "name": "Brobackan muinaisjäännösalue",
        "municipality": "Raasepori",
        "region": "Uusimaa"
      }
    },
    {
      "type": "Feature",
      "geometry": {
        "type": "Point",
        "coordinates": [321608.22699999996, 6672830.3956]
      },
      "properties": {
        "id": 220010088,
        "number": 4,
        "name": "Junkarsborgin keskiaikaine linnoitus",
        "municipality": "Raasepori",
        "region": "Uusimaa"
      }
    },
    {
      "type": "Feature",
      "geometry": {
        "type": "Point",
        "coordinates": [315331, 6664000]
      },
      "properties": {
        "id": 220010058,
        "number": 5,
        "name": "Kroggårdsmalmenin rautakautinen tarhakalmisto",
        "municipality": "Raasepori",
        "region": "Uusimaa"
      }
    },
    {
      "type": "Feature",
      "geometry": {
        "type": "Point",
        "coordinates": [357310.86620000005, 6675020.6855999995]
      },
      "properties": {
        "id": 257010029,
        "number": 6,
        "name": "Juusjärven kalliomaalaus",
        "municipality": "Kirkkonummi",
        "region": "Uusimaa"
      }
    },
    {
      "type": "Feature",
      "geometry": {
        "type": "Point",
        "coordinates": [354318, 6662988]
      },
      "properties": {
        "id": 257010026,
        "number": 7,
        "name": "Kasabergetin pronssikauden hautaröykkiöt ja vartiotulipaikka",
        "municipality": "Kirkkonummi",
        "region": "Uusimaa"
      }
    },
    {
      "type": "Feature",
      "geometry": {
        "type": "Point",
        "coordinates": [362564, 6674656]
      },
      "properties": {
        "id": 257010057,
        "number": 8,
        "name": "Vitträskin kalliomaalaus",
        "municipality": "Kirkkonummi",
        "region": "Uusimaa"
      }
    },
    {
      "type": "Feature",
      "geometry": {
        "type": "Point",
        "coordinates": [307832.8110999996, 6663785.961200001]
      },
      "properties": {
        "id": 606010027,
        "number": 9,
        "name": "Sjösängin ja Starrbölen rautakautiset röykkiöalueet",
        "municipality": "Pohja",
        "region": "Uusimaa"
      }
    },
    {
      "type": "Feature",
      "geometry": {
        "type": "Point",
        "coordinates": [307847.80680000037, 6663894.9124]
      },
      "properties": {
        "id": 606010028,
        "number": 9,
        "name": "Sjösängin ja Starrbölen rautakautiset röykkiöalueet",
        "municipality": "Pohja",
        "region": "Uusimaa"
      }
    },
    {
      "type": "Feature",
      "geometry": {
        "type": "Point",
        "coordinates": [308210.65490000043, 6664158.808599999]
      },
      "properties": {
        "id": 606010029,
        "number": 9,
        "name": "Sjösängin ja Starrbölen rautakautiset röykkiöalueet",
        "municipality": "Pohja",
        "region": "Uusimaa"
      }
    },
    {
      "type": "Feature",
      "geometry": {
        "type": "Point",
        "coordinates": [308373.59279999975, 6664231.776799999]
      },
      "properties": {
        "id": 606010030,
        "number": 9,
        "name": "Sjösängin ja Starrbölen rautakautiset röykkiöalueet",
        "municipality": "Pohja",
        "region": "Uusimaa"
      }
    },
    {
      "type": "Feature",
      "geometry": {
        "type": "Point",
        "coordinates": [308357.60140000004, 6664532.6547]
      },
      "properties": {
        "id": 606010031,
        "number": 9,
        "name": "Sjösängin ja Starrbölen rautakautiset röykkiöalueet",
        "municipality": "Pohja",
        "region": "Uusimaa"
      }
    },
    {
      "type": "Feature",
      "geometry": {
        "type": "Point",
        "coordinates": [308796.4187000003, 6664272.7619]
      },
      "properties": {
        "id": 606010032,
        "number": 9,
        "name": "Sjösängin ja Starrbölen rautakautiset röykkiöalueet",
        "municipality": "Pohja",
        "region": "Uusimaa"
      }
    },
    {
      "type": "Feature",
      "geometry": {
        "type": "Point",
        "coordinates": [309061.3158999998, 6664390.7228]
      },
      "properties": {
        "id": 606010033,
        "number": 9,
        "name": "Sjösängin ja Starrbölen rautakautiset röykkiöalueet",
        "municipality": "Pohja",
        "region": "Uusimaa"
      }
    },
    {
      "type": "Feature",
      "geometry": {
        "type": "Point",
        "coordinates": [309215.25270000007, 6664453.6927000005]
      },
      "properties": {
        "id": 606010034,
        "number": 9,
        "name": "Sjösängin ja Starrbölen rautakautiset röykkiöalueet",
        "municipality": "Pohja",
        "region": "Uusimaa"
      }
    },
    {
      "type": "Feature",
      "geometry": {
        "type": "Point",
        "coordinates": [309641.0843000002, 6664574.6439]
      },
      "properties": {
        "id": 606010035,
        "number": 9,
        "name": "Sjösängin ja Starrbölen rautakautiset röykkiöalueet",
        "municipality": "Pohja",
        "region": "Uusimaa"
      }
    },
    {
      "type": "Feature",
      "geometry": {
        "type": "Point",
        "coordinates": [310047.9210000001, 6664486.6811999995]
      },
      "properties": {
        "id": 606010036,
        "number": 9,
        "name": "Sjösängin ja Starrbölen rautakautiset röykkiöalueet",
        "municipality": "Pohja",
        "region": "Uusimaa"
      }
    },
    {
      "type": "Feature",
      "geometry": {
        "type": "Point",
        "coordinates": [345017.8080000002, 6674748.7412]
      },
      "properties": {
        "id": 755010007,
        "number": 10,
        "name": "Skällbergetin linnavuori, Krejansbergetin pronssikautiset hautaröykkiöt ja Ekebergan rautakautinen kalmisto",
        "municipality": "Siuntio",
        "region": "Uusimaa"
      }
    },
    {
      "type": "Feature",
      "geometry": {
        "type": "Point",
        "coordinates": [344873.86039999966, 6675766.324200001]
      },
      "properties": {
        "id": 755010009,
        "number": 10,
        "name": "Skällbergetin linnavuori, Krejansbergetin pronssikautiset hautaröykkiöt ja Ekebergan rautakautinen kalmisto",
        "municipality": "Siuntio",
        "region": "Uusimaa"
      }
    },
    {
      "type": "Feature",
      "geometry": {
        "type": "Point",
        "coordinates": [344780.9090999998, 6674357.897600001]
      },
      "properties": {
        "id": 755010014,
        "number": 10,
        "name": "Skällbergetin linnavuori, Krejansbergetin pronssikautiset hautaröykkiöt ja Ekebergan rautakautinen kalmisto",
        "municipality": "Siuntio",
        "region": "Uusimaa"
      }
    },
    {
      "type": "Feature",
      "geometry": {
        "type": "Point",
        "coordinates": [313006.75430000015, 6659125.8541]
      },
      "properties": {
        "id": 835010092,
        "number": 11,
        "name": "Snappertunan Rullarsbölen Kasbergetin pronssikautiset hautaröykkiöt",
        "municipality": "Tammisaari",
        "region": "Uusimaa"
      }
    },
    {
      "type": "Feature",
      "geometry": {
        "type": "Point",
        "coordinates": [422531.44600000046, 6713291.612299999]
      },
      "properties": {
        "id": 18010051,
        "number": 12,
        "name": "Korpinkallion kivikautinen kvartsilouhos",
        "municipality": "Askola",
        "region": "Itä-Uusimaa"
      }
    },
    {
      "type": "Feature",
      "geometry": {
        "type": "Point",
        "coordinates": [423641.04669999983, 6704085.3244]
      },
      "properties": {
        "id": 613010013,
        "number": 13,
        "name": "Henttalan kivikautinen asuinpaikka",
        "municipality": "Porvoo",
        "region": "Itä-Uusimaa"
      }
    },
    {
      "type": "Feature",
      "geometry": {
        "type": "Point",
        "coordinates": [425460.3471999997, 6696728.2993]
      },
      "properties": {
        "id": 612010025,
        "number": 14,
        "name": "Isolinnanmäen muinaislinna ja Pikkulinnanmäen rautakautinen kalmisto",
        "municipality": "Porvoo",
        "region": "Itä-Uusimaa"
      }
    },
    {
      "type": "Feature",
      "geometry": {
        "type": "Point",
        "coordinates": [417125, 6673326]
      },
      "properties": {
        "id": 613010036,
        "number": 15,
        "name": "Rågskärin jatulintarhat",
        "municipality": "Porvoo",
        "region": "Itä-Uusimaa"
      }
    },
    {
      "type": "Feature",
      "geometry": {
        "type": "Point",
        "coordinates": [407099.7910000002, 6685145.868100001]
      },
      "properties": {
        "id": 753010020,
        "number": 16,
        "name": "Sibbesborgin muinaislinna",
        "municipality": "Sipoo",
        "region": "Itä-Uusimaa"
      }
    },
    {
      "type": "Feature",
      "geometry": {
        "type": "Point",
        "coordinates": [247425.17420000024, 6646477.6041]
      },
      "properties": {
        "id": 40010027,
        "number": 17,
        "name": "Hiittisten Kyrksundetin rautakautinen ja keskiaikainen muinaisjäännösalue",
        "municipality": "Dragsfjärd",
        "region": "Varsinais-Suomi"
      }
    },
    {
      "type": "Feature",
      "geometry": {
        "type": "Point",
        "coordinates": [282565.78000000026, 6701225.786900001]
      },
      "properties": {
        "id": 73010021,
        "number": 18,
        "name": "Rikalan muinaislinna sekä rautakautiset asuinpaikat ja kalmistot",
        "municipality": "Halikko",
        "region": "Varsinais-Suomi"
      }
    },
    {
      "type": "Feature",
      "geometry": {
        "type": "Point",
        "coordinates": [283168.534, 6701699.597999999]
      },
      "properties": {
        "id": 73010022,
        "number": 18,
        "name": "Rikalan muinaislinna sekä rautakautiset asuinpaikat ja kalmistot",
        "municipality": "Halikko",
        "region": "Varsinais-Suomi"
      }
    },
    {
      "type": "Feature",
      "geometry": {
        "type": "Point",
        "coordinates": [182376, 6689518]
      },
      "properties": {
        "id": 101010001,
        "number": 19,
        "name": "Furunabbin rautakautinen röykkiökalmisto",
        "municipality": "Houtskari",
        "region": "Varsinais-Suomi"
      }
    },
    {
      "type": "Feature",
      "geometry": {
        "type": "Point",
        "coordinates": [198465.85230000038, 6644666.0711]
      },
      "properties": {
        "id": 279010011,
        "number": 20,
        "name": "Jurmon latomukset",
        "municipality": "Korppoo",
        "region": "Varsinais-Suomi"
      }
    },
    {
      "type": "Feature",
      "geometry": {
        "type": "Point",
        "coordinates": [209196.93420000002, 6764575.982899999]
      },
      "properties": {
        "id": 400010252,
        "number": 21,
        "name": "Untamalan muinaisjäännösalue",
        "municipality": "Laitila",
        "region": "Varsinais-Suomi"
      }
    },
    {
      "type": "Feature",
      "geometry": {
        "type": "Point",
        "coordinates": [211141.1880999999, 6757802.7115]
      },
      "properties": {
        "id": 400010150,
        "number": 22,
        "name": "Vainionmäen rautakautinen polttokalmisto",
        "municipality": "Laitila",
        "region": "Varsinais-Suomi"
      }
    },
    {
      "type": "Feature",
      "geometry": {
        "type": "Point",
        "coordinates": [251038.3389999997, 6722437.1041]
      },
      "properties": {
        "id": 423010015,
        "number": 23,
        "name": "Kukkarkosken kivikautinen asuinpaikka ja kalmisto",
        "municipality": "Lieto",
        "region": "Varsinais-Suomi"
      }
    },
    {
      "type": "Feature",
      "geometry": {
        "type": "Point",
        "coordinates": [246316.26999999955, 6715312.9419]
      },
      "properties": {
        "id": 423010010,
        "number": 24,
        "name": "Ristipellon myöhäisrautakautinen ruumiskalmisto",
        "municipality": "Lieto",
        "region": "Varsinais-Suomi"
      }
    },
    {
      "type": "Feature",
      "geometry": {
        "type": "Point",
        "coordinates": [246073.36950000003, 6714531.255799999]
      },
      "properties": {
        "id": 423010001,
        "number": 25,
        "name": "Vanhalinnan muinaislinna, rautakautinen asuinpaikka ja kalmisto",
        "municipality": "Lieto",
        "region": "Varsinais-Suomi"
      }
    },
    {
      "type": "Feature",
      "geometry": {
        "type": "Point",
        "coordinates": [246325.2745000003, 6714649.206700001]
      },
      "properties": {
        "id": 423010002,
        "number": 25,
        "name": "Vanhalinnan muinaislinna, rautakautinen asuinpaikka ja kalmisto",
        "municipality": "Lieto",
        "region": "Varsinais-Suomi"
      }
    },
    {
      "type": "Feature",
      "geometry": {
        "type": "Point",
        "coordinates": [285216.8304000003, 6677638.2699]
      },
      "properties": {
        "id": 586010072,
        "number": 26,
        "name": "Tiikkinummen ja Karpinmäen muinaisjäännösalue",
        "municipality": "Perniö",
        "region": "Varsinais-Suomi"
      }
    },
    {
      "type": "Feature",
      "geometry": {
        "type": "Point",
        "coordinates": [285383.76860000007, 6677570.3024]
      },
      "properties": {
        "id": 586010073,
        "number": 26,
        "name": "Tiikkinummen ja Karpinmäen muinaisjäännösalue",
        "municipality": "Perniö",
        "region": "Varsinais-Suomi"
      }
    },
    {
      "type": "Feature",
      "geometry": {
        "type": "Point",
        "coordinates": [285938.5389999999, 6677455.3551]
      },
      "properties": {
        "id": 586010074,
        "number": 26,
        "name": "Tiikkinummen ja Karpinmäen muinaisjäännösalue",
        "municipality": "Perniö",
        "region": "Varsinais-Suomi"
      }
    },
    {
      "type": "Feature",
      "geometry": {
        "type": "Point",
        "coordinates": [285659.6562999999, 6677247.4297]
      },
      "properties": {
        "id": 586010075,
        "number": 26,
        "name": "Tiikkinummen ja Karpinmäen muinaisjäännösalue",
        "municipality": "Perniö",
        "region": "Varsinais-Suomi"
      }
    },
    {
      "type": "Feature",
      "geometry": {
        "type": "Point",
        "coordinates": [285586.68759999983, 6677200.4475]
      },
      "properties": {
        "id": 586010076,
        "number": 26,
        "name": "Tiikkinummen ja Karpinmäen muinaisjäännösalue",
        "municipality": "Perniö",
        "region": "Varsinais-Suomi"
      }
    },
    {
      "type": "Feature",
      "geometry": {
        "type": "Point",
        "coordinates": [285497, 6676894]
      },
      "properties": {
        "id": 586010077,
        "number": 26,
        "name": "Tiikkinummen ja Karpinmäen muinaisjäännösalue",
        "municipality": "Perniö",
        "region": "Varsinais-Suomi"
      }
    },
    {
      "type": "Feature",
      "geometry": {
        "type": "Point",
        "coordinates": [251027.4171000002, 6707298.190300001]
      },
      "properties": {
        "id": 602010030,
        "number": 27,
        "name": "Rungon Koskenhaan rautakautinen kalmistoalue",
        "municipality": "Piikkiö",
        "region": "Varsinais-Suomi"
      }
    },
    {
      "type": "Feature",
      "geometry": {
        "type": "Point",
        "coordinates": [287368.84410000034, 6702709.214199999]
      },
      "properties": {
        "id": 734010025,
        "number": 28,
        "name": "Ketohaan varhaismetallikautinen ja rautakautinen asuinpaikka- ja kalmistoalue",
        "municipality": "Salo",
        "region": "Varsinais-Suomi"
      }
    },
    {
      "type": "Feature",
      "geometry": {
        "type": "Point",
        "coordinates": [284149, 6697739]
      },
      "properties": {
        "id": 734010012,
        "number": 29,
        "name": "Tampaltanmäen, Viitamäen ja Ilmusmäen hiidenkiukaat",
        "municipality": "Salo",
        "region": "Varsinais-Suomi"
      }
    },
    {
      "type": "Feature",
      "geometry": {
        "type": "Point",
        "coordinates": [284204.1431, 6696976.5]
      },
      "properties": {
        "id": 734010013,
        "number": 29,
        "name": "Tampaltanmäen, Viitamäen ja Ilmusmäen hiidenkiukaat",
        "municipality": "Salo",
        "region": "Varsinais-Suomi"
      }
    },
    {
      "type": "Feature",
      "geometry": {
        "type": "Point",
        "coordinates": [288914.2419999996, 6698107.068]
      },
      "properties": {
        "id": 734010014,
        "number": 29,
        "name": "Tampaltanmäen, Viitamäen ja Ilmusmäen hiidenkiukaat",
        "municipality": "Salo",
        "region": "Varsinais-Suomi"
      }
    },
    {
      "type": "Feature",
      "geometry": {
        "type": "Point",
        "coordinates": [241048.40199999977, 6712629.999399999]
      },
      "properties": {
        "id": 853010001,
        "number": 30,
        "name": "Koroisten piispanlinnan, kirkon ja kastarin perustukset",
        "municipality": "Turku",
        "region": "Varsinais-Suomi"
      }
    },
    {
      "type": "Feature",
      "geometry": {
        "type": "Point",
        "coordinates": [239675.61560000014, 6782031.1138]
      },
      "properties": {
        "id": 50010019,
        "number": 31,
        "name": "Harolan rautakautinen röykkiöalue",
        "municipality": "Eura",
        "region": "Satakunta"
      }
    },
    {
      "type": "Feature",
      "geometry": {
        "type": "Point",
        "coordinates": [238330.1372999996, 6786836.1776]
      },
      "properties": {
        "id": 50010027,
        "number": 32,
        "name": "Käräjämäen rautakautinen kalmistoalue",
        "municipality": "Eura",
        "region": "Satakunta"
      }
    },
    {
      "type": "Feature",
      "geometry": {
        "type": "Point",
        "coordinates": [238596.03729999997, 6785033.9001]
      },
      "properties": {
        "id": 50010032,
        "number": 33,
        "name": "Luistarin muinaisjäännösalue",
        "municipality": "Eura",
        "region": "Satakunta"
      }
    },
    {
      "type": "Feature",
      "geometry": {
        "type": "Point",
        "coordinates": [210644.19539999962, 6799010.166200001]
      },
      "properties": {
        "id": 51010006,
        "number": 34,
        "name": "Liinmaan linnan keskiaikainen linnanraunio",
        "municipality": "Eurajoki",
        "region": "Satakunta"
      }
    },
    {
      "type": "Feature",
      "geometry": {
        "type": "Point",
        "coordinates": [233148.12420000043, 6806723.169100001]
      },
      "properties": {
        "id": 79010001,
        "number": 35,
        "name": "Kaunismäen pronssikautinen röykkiökalmisto",
        "municipality": "Harjavalta",
        "region": "Satakunta"
      }
    },
    {
      "type": "Feature",
      "geometry": {
        "type": "Point",
        "coordinates": [241504.78199999966, 6804084.2634]
      },
      "properties": {
        "id": 79010016,
        "number": 36,
        "name": "Matinharjun pronssikautiset hautaröykkiöt",
        "municipality": "Harjavalta",
        "region": "Satakunta"
      }
    },
    {
      "type": "Feature",
      "geometry": {
        "type": "Point",
        "coordinates": [230507.2285000002, 6797572.8368999995]
      },
      "properties": {
        "id": 262010026,
        "number": 37,
        "name": "Kuninkaanhauta - Suomen suurin pronssikautinen hautaröykkiö",
        "municipality": "Kiukainen",
        "region": "Satakunta"
      }
    },
    {
      "type": "Feature",
      "geometry": {
        "type": "Point",
        "coordinates": [249874.42669999972, 6802569.913699999]
      },
      "properties": {
        "id": 271010036,
        "number": 38,
        "name": "Orjapaadenkallion pronssikautinen hautaröykkiö",
        "municipality": "Kokemäki",
        "region": "Satakunta"
      }
    },
    {
      "type": "Feature",
      "geometry": {
        "type": "Point",
        "coordinates": [252027.56740000006, 6800975.5691]
      },
      "properties": {
        "id": 271010013,
        "number": 39,
        "name": "Kokemäkijokivarren rautakautinen ja keskiaikainen muinaisjäännösalue",
        "municipality": "Kokemäki",
        "region": "Satakunta"
      }
    },
    {
      "type": "Feature",
      "geometry": {
        "type": "Point",
        "coordinates": [252176.50509999972, 6800519.748500001]
      },
      "properties": {
        "id": 271010014,
        "number": 39,
        "name": "Kokemäkijokivarren rautakautinen ja keskiaikainen muinaisjäännösalue",
        "municipality": "Kokemäki",
        "region": "Satakunta"
      }
    },
    {
      "type": "Feature",
      "geometry": {
        "type": "Point",
        "coordinates": [251638, 6801615]
      },
      "properties": {
        "id": 271010015,
        "number": 39,
        "name": "Kokemäkijokivarren rautakautinen ja keskiaikainen muinaisjäännösalue",
        "municipality": "Kokemäki",
        "region": "Satakunta"
      }
    },
    {
      "type": "Feature",
      "geometry": {
        "type": "Point",
        "coordinates": [251829.64680000022, 6800230.866799999]
      },
      "properties": {
        "id": 271010019,
        "number": 39,
        "name": "Kokemäkijokivarren rautakautinen ja keskiaikainen muinaisjäännösalue",
        "municipality": "Kokemäki",
        "region": "Satakunta"
      }
    },
    {
      "type": "Feature",
      "geometry": {
        "type": "Point",
        "coordinates": [248501.04069999978, 6788200.679499999]
      },
      "properties": {
        "id": 319010019,
        "number": 40,
        "name": "Kirkonkarin keskiaikainen kappelin paikka",
        "municipality": "Köyliö",
        "region": "Satakunta"
      }
    },
    {
      "type": "Feature",
      "geometry": {
        "type": "Point",
        "coordinates": [249130.80150000006, 6786204.487300001]
      },
      "properties": {
        "id": 319010017,
        "number": 41,
        "name": "Vanhankartanon rautakautiset ruumiskalmistot",
        "municipality": "Köyliö",
        "region": "Satakunta"
      }
    },
    {
      "type": "Feature",
      "geometry": {
        "type": "Point",
        "coordinates": [218665.02579999994, 6787137.963100001]
      },
      "properties": {
        "id": 406010010,
        "number": 42,
        "name": "Sammallahdenmäen pronssikautinen hautaröykkiöalue",
        "municipality": "Lappi",
        "region": "Satakunta"
      }
    },
    {
      "type": "Feature",
      "geometry": {
        "type": "Point",
        "coordinates": [235753.01640000008, 6819393.0933]
      },
      "properties": {
        "id": 531010035,
        "number": 43,
        "name": "Rieskaronmäen pronssikautiset hautaröykkiöt ja kolme rakennuksen jäännöstä",
        "municipality": "Nakkila",
        "region": "Satakunta"
      }
    },
    {
      "type": "Feature",
      "geometry": {
        "type": "Point",
        "coordinates": [235274.2276999997, 6816161.388999999]
      },
      "properties": {
        "id": 531010027,
        "number": 44,
        "name": "Viikkalan Selkäkankaan pronssikautiset hautaröykkiöt",
        "municipality": "Nakkila",
        "region": "Satakunta"
      }
    },
    {
      "type": "Feature",
      "geometry": {
        "type": "Point",
        "coordinates": [208981.7209999999, 6830012.708000001]
      },
      "properties": {
        "id": 609010001,
        "number": 45,
        "name": "Linjaharjun rautakautinen röykkiökalmisto",
        "municipality": "Pori",
        "region": "Satakunta"
      }
    },
    {
      "type": "Feature",
      "geometry": {
        "type": "Point",
        "coordinates": [210258.42129999958, 6783892.2337]
      },
      "properties": {
        "id": 684010036,
        "number": 46,
        "name": "Kylmäkorvenkallion pronssikautiset hautaröykkiöt, muut kiviröykkiöt ja kivipöydät",
        "municipality": "Rauma",
        "region": "Satakunta"
      }
    },
    {
      "type": "Feature",
      "geometry": {
        "type": "Point",
        "coordinates": [210082.4913999997, 6783727.2914]
      },
      "properties": {
        "id": 684010037,
        "number": 46,
        "name": "Kylmäkorvenkallion pronssikautiset hautaröykkiöt, muut kiviröykkiöt ja kivipöydät",
        "municipality": "Rauma",
        "region": "Satakunta"
      }
    },
    {
      "type": "Feature",
      "geometry": {
        "type": "Point",
        "coordinates": [207765.43479999993, 6780061.753199998]
      },
      "properties": {
        "id": 684010047,
        "number": 47,
        "name": "Salissuonmäen vanhemman rautakauden hautaröykkiöt",
        "municipality": "Rauma",
        "region": "Satakunta"
      }
    },
    {
      "type": "Feature",
      "geometry": {
        "type": "Point",
        "coordinates": [227957.13520000037, 6821358.268300001]
      },
      "properties": {
        "id": 886010004,
        "number": 48,
        "name": "Liikistön keskiaikaisen kirkon ja hautausmaan paikka",
        "municipality": "Ulvila",
        "region": "Satakunta"
      }
    },
    {
      "type": "Feature",
      "geometry": {
        "type": "Point",
        "coordinates": [357109.426, 6782795.359099999]
      },
      "properties": {
        "id": 82010033,
        "number": 49,
        "name": "Anttilan rautakautinen miekanhiontakivi",
        "municipality": "Hattula",
        "region": "Häme"
      }
    },
    {
      "type": "Feature",
      "geometry": {
        "type": "Point",
        "coordinates": [356227.76580000017, 6785387.306299999]
      },
      "properties": {
        "id": 82010036,
        "number": 50,
        "name": "Retulansaaren muinaisjäännösalue",
        "municipality": "Hattula",
        "region": "Häme"
      }
    },
    {
      "type": "Feature",
      "geometry": {
        "type": "Point",
        "coordinates": [356451.68740000017, 6784366.724100001]
      },
      "properties": {
        "id": 82010037,
        "number": 50,
        "name": "Retulansaaren muinaisjäännösalue",
        "municipality": "Hattula",
        "region": "Häme"
      }
    },
    {
      "type": "Feature",
      "geometry": {
        "type": "Point",
        "coordinates": [355962.87789999973, 6785059.441799998]
      },
      "properties": {
        "id": 82010038,
        "number": 50,
        "name": "Retulansaaren muinaisjäännösalue",
        "municipality": "Hattula",
        "region": "Häme"
      }
    },
    {
      "type": "Feature",
      "geometry": {
        "type": "Point",
        "coordinates": [355827.9286000002, 6784965.477499999]
      },
      "properties": {
        "id": 82010039,
        "number": 50,
        "name": "Retulansaaren muinaisjäännösalue",
        "municipality": "Hattula",
        "region": "Häme"
      }
    },
    {
      "type": "Feature",
      "geometry": {
        "type": "Point",
        "coordinates": [355967.8799999999, 6784959.4791]
      },
      "properties": {
        "id": 82010040,
        "number": 50,
        "name": "Retulansaaren muinaisjäännösalue",
        "municipality": "Hattula",
        "region": "Häme"
      }
    },
    {
      "type": "Feature",
      "geometry": {
        "type": "Point",
        "coordinates": [355935.892, 6784920.4958]
      },
      "properties": {
        "id": 82010041,
        "number": 50,
        "name": "Retulansaaren muinaisjäännösalue",
        "municipality": "Hattula",
        "region": "Häme"
      }
    },
    {
      "type": "Feature",
      "geometry": {
        "type": "Point",
        "coordinates": [355910.90139999986, 6784811.544500001]
      },
      "properties": {
        "id": 82010042,
        "number": 50,
        "name": "Retulansaaren muinaisjäännösalue",
        "municipality": "Hattula",
        "region": "Häme"
      }
    },
    {
      "type": "Feature",
      "geometry": {
        "type": "Point",
        "coordinates": [355855.9184999997, 6784694.5845]
      },
      "properties": {
        "id": 82010043,
        "number": 50,
        "name": "Retulansaaren muinaisjäännösalue",
        "municipality": "Hattula",
        "region": "Häme"
      }
    },
    {
      "type": "Feature",
      "geometry": {
        "type": "Point",
        "coordinates": [355724.9768000003, 6784670.598000001]
      },
      "properties": {
        "id": 82010044,
        "number": 50,
        "name": "Retulansaaren muinaisjäännösalue",
        "municipality": "Hattula",
        "region": "Häme"
      }
    },
    {
      "type": "Feature",
      "geometry": {
        "type": "Point",
        "coordinates": [355384.1085000001, 6785536.2467]
      },
      "properties": {
        "id": 82010045,
        "number": 50,
        "name": "Retulansaaren muinaisjäännösalue",
        "municipality": "Hattula",
        "region": "Häme"
      }
    },
    {
      "type": "Feature",
      "geometry": {
        "type": "Point",
        "coordinates": [355635.00150000025, 6785995.068399999]
      },
      "properties": {
        "id": 82010046,
        "number": 50,
        "name": "Retulansaaren muinaisjäännösalue",
        "municipality": "Hattula",
        "region": "Häme"
      }
    },
    {
      "type": "Feature",
      "geometry": {
        "type": "Point",
        "coordinates": [355886.9079, 6785814.140900001]
      },
      "properties": {
        "id": 82010048,
        "number": 50,
        "name": "Retulansaaren muinaisjäännösalue",
        "municipality": "Hattula",
        "region": "Häme"
      }
    },
    {
      "type": "Feature",
      "geometry": {
        "type": "Point",
        "coordinates": [353894.7145999996, 6784714.572000001]
      },
      "properties": {
        "id": 82010049,
        "number": 50,
        "name": "Retulansaaren muinaisjäännösalue",
        "municipality": "Hattula",
        "region": "Häme"
      }
    },
    {
      "type": "Feature",
      "geometry": {
        "type": "Point",
        "coordinates": [353763.80200000014, 6776612.824200001]
      },
      "properties": {
        "id": 82010019,
        "number": 51,
        "name": "Tenholan linnavuori",
        "municipality": "Hattula",
        "region": "Häme"
      }
    },
    {
      "type": "Feature",
      "geometry": {
        "type": "Point",
        "coordinates": [359518.42140000034, 6790121.421799999]
      },
      "properties": {
        "id": 83010004,
        "number": 52,
        "name": "Kalomäen rautakautinen muinaisjäännösalue",
        "municipality": "Hauho",
        "region": "Häme"
      }
    },
    {
      "type": "Feature",
      "geometry": {
        "type": "Point",
        "coordinates": [363151.07739999983, 6765903.1724]
      },
      "properties": {
        "id": 109010023,
        "number": 53,
        "name": "Varikonniemen hopea-aarteen löytöpaikka ja rautakautinen/varhaiskeskiaikainen asuinpaikka",
        "municipality": "Hämeenlinna",
        "region": "Häme"
      }
    },
    {
      "type": "Feature",
      "geometry": {
        "type": "Point",
        "coordinates": [369030.7812999999, 6751571.962099999]
      },
      "properties": {
        "id": 165010040,
        "number": 54,
        "name": "Hakoisten keskiaikainen linnavuori, rautakautinen kalmisto- ja asuinpaikka-alue",
        "municipality": "Janakkala",
        "region": "Häme"
      }
    },
    {
      "type": "Feature",
      "geometry": {
        "type": "Point",
        "coordinates": [415307.08189999964, 6769967.7805]
      },
      "properties": {
        "id": 98010008,
        "number": 55,
        "name": "Kapatuosian linnavuori",
        "municipality": "Hollola",
        "region": "Päijät-Häme"
      }
    },
    {
      "type": "Feature",
      "geometry": {
        "type": "Point",
        "coordinates": [416107.7993999999, 6761885.035499999]
      },
      "properties": {
        "id": 98010014,
        "number": 56,
        "name": "Kirkailanmäen myöhäisrautakautinen ja varhaiskeskiaikainen ruumiskalmisto",
        "municipality": "Hollola",
        "region": "Päijät-Häme"
      }
    },
    {
      "type": "Feature",
      "geometry": {
        "type": "Point",
        "coordinates": [422271.3415999999, 6757233.9407]
      },
      "properties": {
        "id": 398010014,
        "number": 57,
        "name": "Nostavan-Luhdanjoen kivikautiset asuinpaikat",
        "municipality": "Lahti-Hollola",
        "region": "Päijät-Häme"
      }
    },
    {
      "type": "Feature",
      "geometry": {
        "type": "Point",
        "coordinates": [422251.3543999996, 6756774.1204]
      },
      "properties": {
        "id": 398010015,
        "number": 57,
        "name": "Nostavan-Luhdanjoen kivikautiset asuinpaikat",
        "municipality": "Lahti-Hollola",
        "region": "Päijät-Häme"
      }
    },
    {
      "type": "Feature",
      "geometry": {
        "type": "Point",
        "coordinates": [421861.5064000003, 6757563.8016]
      },
      "properties": {
        "id": 98010031,
        "number": 57,
        "name": "Nostavan-Luhdanjoen kivikautiset asuinpaikat",
        "municipality": "Lahti-Hollola",
        "region": "Päijät-Häme"
      }
    },
    {
      "type": "Feature",
      "geometry": {
        "type": "Point",
        "coordinates": [421571.6205000002, 6756954.046]
      },
      "properties": {
        "id": 98010032,
        "number": 57,
        "name": "Nostavan-Luhdanjoen kivikautiset asuinpaikat",
        "municipality": "Lahti-Hollola",
        "region": "Päijät-Häme"
      }
    },
    {
      "type": "Feature",
      "geometry": {
        "type": "Point",
        "coordinates": [421381.70749999955, 6756244.328199999]
      },
      "properties": {
        "id": 98010033,
        "number": 57,
        "name": "Nostavan-Luhdanjoen kivikautiset asuinpaikat",
        "municipality": "Lahti-Hollola",
        "region": "Päijät-Häme"
      }
    },
    {
      "type": "Feature",
      "geometry": {
        "type": "Point",
        "coordinates": [420921.89740000013, 6755044.813999999]
      },
      "properties": {
        "id": 98010034,
        "number": 57,
        "name": "Nostavan-Luhdanjoen kivikautiset asuinpaikat",
        "municipality": "Lahti-Hollola",
        "region": "Päijät-Häme"
      }
    },
    {
      "type": "Feature",
      "geometry": {
        "type": "Point",
        "coordinates": [415460.81769999955, 6814269.9615]
      },
      "properties": {
        "id": 576010009,
        "number": 58,
        "name": "Linnasaaren muinaislinna",
        "municipality": "Padasjoki",
        "region": "Päijät-Häme"
      }
    },
    {
      "type": "Feature",
      "geometry": {
        "type": "Point",
        "coordinates": [428948.3865, 6817159.860599998]
      },
      "properties": {
        "id": 781010003,
        "number": 59,
        "name": "Kirkonseudun rautakautinen asutusalue",
        "municipality": "Sysmä",
        "region": "Päijät-Häme"
      }
    },
    {
      "type": "Feature",
      "geometry": {
        "type": "Point",
        "coordinates": [428838.42540000007, 6817699.646499999]
      },
      "properties": {
        "id": 781010004,
        "number": 59,
        "name": "Kirkonseudun rautakautinen asutusalue",
        "municipality": "Sysmä",
        "region": "Päijät-Häme"
      }
    },
    {
      "type": "Feature",
      "geometry": {
        "type": "Point",
        "coordinates": [428268.6508999998, 6817729.628800001]
      },
      "properties": {
        "id": 781010005,
        "number": 59,
        "name": "Kirkonseudun rautakautinen asutusalue",
        "municipality": "Sysmä",
        "region": "Päijät-Häme"
      }
    },
    {
      "type": "Feature",
      "geometry": {
        "type": "Point",
        "coordinates": [428378.60919999983, 6817809.595400002]
      },
      "properties": {
        "id": 781010006,
        "number": 59,
        "name": "Kirkonseudun rautakautinen asutusalue",
        "municipality": "Sysmä",
        "region": "Päijät-Häme"
      }
    },
    {
      "type": "Feature",
      "geometry": {
        "type": "Point",
        "coordinates": [428298.64269999973, 6817919.5559]
      },
      "properties": {
        "id": 781010007,
        "number": 59,
        "name": "Kirkonseudun rautakautinen asutusalue",
        "municipality": "Sysmä",
        "region": "Päijät-Häme"
      }
    },
    {
      "type": "Feature",
      "geometry": {
        "type": "Point",
        "coordinates": [428358.61950000003, 6817899.559700001]
      },
      "properties": {
        "id": 781010008,
        "number": 59,
        "name": "Kirkonseudun rautakautinen asutusalue",
        "municipality": "Sysmä",
        "region": "Päijät-Häme"
      }
    },
    {
      "type": "Feature",
      "geometry": {
        "type": "Point",
        "coordinates": [428368.61319999956, 6818109.4833]
      },
      "properties": {
        "id": 781010009,
        "number": 59,
        "name": "Kirkonseudun rautakautinen asutusalue",
        "municipality": "Sysmä",
        "region": "Päijät-Häme"
      }
    },
    {
      "type": "Feature",
      "geometry": {
        "type": "Point",
        "coordinates": [428228.67080000043, 6818019.518300001]
      },
      "properties": {
        "id": 781010010,
        "number": 59,
        "name": "Kirkonseudun rautakautinen asutusalue",
        "municipality": "Sysmä",
        "region": "Päijät-Häme"
      }
    },
    {
      "type": "Feature",
      "geometry": {
        "type": "Point",
        "coordinates": [428038.7457999997, 6818069.4888]
      },
      "properties": {
        "id": 781010011,
        "number": 59,
        "name": "Kirkonseudun rautakautinen asutusalue",
        "municipality": "Sysmä",
        "region": "Päijät-Häme"
      }
    },
    {
      "type": "Feature",
      "geometry": {
        "type": "Point",
        "coordinates": [428228.66980000027, 6818239.430199999]
      },
      "properties": {
        "id": 781010012,
        "number": 59,
        "name": "Kirkonseudun rautakautinen asutusalue",
        "municipality": "Sysmä",
        "region": "Päijät-Häme"
      }
    },
    {
      "type": "Feature",
      "geometry": {
        "type": "Point",
        "coordinates": [428333, 6818251]
      },
      "properties": {
        "id": 781010013,
        "number": 59,
        "name": "Kirkonseudun rautakautinen asutusalue",
        "municipality": "Sysmä",
        "region": "Päijät-Häme"
      }
    },
    {
      "type": "Feature",
      "geometry": {
        "type": "Point",
        "coordinates": [428538.54030000046, 6818079.489300001]
      },
      "properties": {
        "id": 781010014,
        "number": 59,
        "name": "Kirkonseudun rautakautinen asutusalue",
        "municipality": "Sysmä",
        "region": "Päijät-Häme"
      }
    },
    {
      "type": "Feature",
      "geometry": {
        "type": "Point",
        "coordinates": [428598.51630000025, 6818219.4353]
      },
      "properties": {
        "id": 781010015,
        "number": 59,
        "name": "Kirkonseudun rautakautinen asutusalue",
        "municipality": "Sysmä",
        "region": "Päijät-Häme"
      }
    },
    {
      "type": "Feature",
      "geometry": {
        "type": "Point",
        "coordinates": [428568.53160000034, 6818359.380899999]
      },
      "properties": {
        "id": 781010016,
        "number": 59,
        "name": "Kirkonseudun rautakautinen asutusalue",
        "municipality": "Sysmä",
        "region": "Päijät-Häme"
      }
    },
    {
      "type": "Feature",
      "geometry": {
        "type": "Point",
        "coordinates": [428578.5253999997, 6818549.298099998]
      },
      "properties": {
        "id": 781010017,
        "number": 59,
        "name": "Kirkonseudun rautakautinen asutusalue",
        "municipality": "Sysmä",
        "region": "Päijät-Häme"
      }
    },
    {
      "type": "Feature",
      "geometry": {
        "type": "Point",
        "coordinates": [428878.40919999965, 6818479.3314]
      },
      "properties": {
        "id": 781010018,
        "number": 59,
        "name": "Kirkonseudun rautakautinen asutusalue",
        "municipality": "Sysmä",
        "region": "Päijät-Häme"
      }
    },
    {
      "type": "Feature",
      "geometry": {
        "type": "Point",
        "coordinates": [429068.32359999977, 6818929.1543000005]
      },
      "properties": {
        "id": 781010019,
        "number": 59,
        "name": "Kirkonseudun rautakautinen asutusalue",
        "municipality": "Sysmä",
        "region": "Päijät-Häme"
      }
    },
    {
      "type": "Feature",
      "geometry": {
        "type": "Point",
        "coordinates": [429259.7324999999, 6818975.4388]
      },
      "properties": {
        "id": 781010020,
        "number": 59,
        "name": "Kirkonseudun rautakautinen asutusalue",
        "municipality": "Sysmä",
        "region": "Päijät-Häme"
      }
    },
    {
      "type": "Feature",
      "geometry": {
        "type": "Point",
        "coordinates": [429270, 6819120]
      },
      "properties": {
        "id": 781010021,
        "number": 59,
        "name": "Kirkonseudun rautakautinen asutusalue",
        "municipality": "Sysmä",
        "region": "Päijät-Häme"
      }
    },
    {
      "type": "Feature",
      "geometry": {
        "type": "Point",
        "coordinates": [429238.2580000004, 6819149.0669]
      },
      "properties": {
        "id": 781010022,
        "number": 59,
        "name": "Kirkonseudun rautakautinen asutusalue",
        "municipality": "Sysmä",
        "region": "Päijät-Häme"
      }
    },
    {
      "type": "Feature",
      "geometry": {
        "type": "Point",
        "coordinates": [429358.2110000001, 6819219.0353000015]
      },
      "properties": {
        "id": 781010023,
        "number": 59,
        "name": "Kirkonseudun rautakautinen asutusalue",
        "municipality": "Sysmä",
        "region": "Päijät-Häme"
      }
    },
    {
      "type": "Feature",
      "geometry": {
        "type": "Point",
        "coordinates": [429678.0828999998, 6819448.947000001]
      },
      "properties": {
        "id": 781010024,
        "number": 59,
        "name": "Kirkonseudun rautakautinen asutusalue",
        "municipality": "Sysmä",
        "region": "Päijät-Häme"
      }
    },
    {
      "type": "Feature",
      "geometry": {
        "type": "Point",
        "coordinates": [428758.46219999995, 6817059.9070999995]
      },
      "properties": {
        "id": 781010078,
        "number": 59,
        "name": "Kirkonseudun rautakautinen asutusalue",
        "municipality": "Sysmä",
        "region": "Päijät-Häme"
      }
    },
    {
      "type": "Feature",
      "geometry": {
        "type": "Point",
        "coordinates": [428328.6275000004, 6817739.6272]
      },
      "properties": {
        "id": 781010079,
        "number": 59,
        "name": "Kirkonseudun rautakautinen asutusalue",
        "municipality": "Sysmä",
        "region": "Päijät-Häme"
      }
    },
    {
      "type": "Feature",
      "geometry": {
        "type": "Point",
        "coordinates": [429258.25090000033, 6818369.382300001]
      },
      "properties": {
        "id": 781010080,
        "number": 59,
        "name": "Kirkonseudun rautakautinen asutusalue",
        "municipality": "Sysmä",
        "region": "Päijät-Häme"
      }
    },
    {
      "type": "Feature",
      "geometry": {
        "type": "Point",
        "coordinates": [429548.13709999993, 6818919.1581999995]
      },
      "properties": {
        "id": 781010082,
        "number": 59,
        "name": "Kirkonseudun rautakautinen asutusalue",
        "municipality": "Sysmä",
        "region": "Päijät-Häme"
      }
    },
    {
      "type": "Feature",
      "geometry": {
        "type": "Point",
        "coordinates": [428838.42679999955, 6817399.7685]
      },
      "properties": {
        "id": 781010110,
        "number": 59,
        "name": "Kirkonseudun rautakautinen asutusalue",
        "municipality": "Sysmä",
        "region": "Päijät-Häme"
      }
    },
    {
      "type": "Feature",
      "geometry": {
        "type": "Point",
        "coordinates": [428018.7587000001, 6817549.698899999]
      },
      "properties": {
        "id": 781010111,
        "number": 59,
        "name": "Kirkonseudun rautakautinen asutusalue",
        "municipality": "Sysmä",
        "region": "Päijät-Häme"
      }
    },
    {
      "type": "Feature",
      "geometry": {
        "type": "Point",
        "coordinates": [428258.6556000002, 6817859.576200001]
      },
      "properties": {
        "id": 781010112,
        "number": 59,
        "name": "Kirkonseudun rautakautinen asutusalue",
        "municipality": "Sysmä",
        "region": "Päijät-Häme"
      }
    },
    {
      "type": "Feature",
      "geometry": {
        "type": "Point",
        "coordinates": [346267.63430000003, 6816503.7542]
      },
      "properties": {
        "id": 211010003,
        "number": 60,
        "name": "Sarsan esihistorialliset asuinpaikat",
        "municipality": "Kangasala",
        "region": "Pirkanmaa"
      }
    },
    {
      "type": "Feature",
      "geometry": {
        "type": "Point",
        "coordinates": [346617, 6816311]
      },
      "properties": {
        "id": 211010004,
        "number": 60,
        "name": "Sarsan esihistorialliset asuinpaikat",
        "municipality": "Kangasala",
        "region": "Pirkanmaa"
      }
    },
    {
      "type": "Feature",
      "geometry": {
        "type": "Point",
        "coordinates": [347062.31159999967, 6816376.809700001]
      },
      "properties": {
        "id": 211010005,
        "number": 60,
        "name": "Sarsan esihistorialliset asuinpaikat",
        "municipality": "Kangasala",
        "region": "Pirkanmaa"
      }
    },
    {
      "type": "Feature",
      "geometry": {
        "type": "Point",
        "coordinates": [346524.5248999996, 6816421.789500002]
      },
      "properties": {
        "id": 211010006,
        "number": 60,
        "name": "Sarsan esihistorialliset asuinpaikat",
        "municipality": "Kangasala",
        "region": "Pirkanmaa"
      }
    },
    {
      "type": "Feature",
      "geometry": {
        "type": "Point",
        "coordinates": [346130, 6816310]
      },
      "properties": {
        "id": 211010007,
        "number": 60,
        "name": "Sarsan esihistorialliset asuinpaikat",
        "municipality": "Kangasala",
        "region": "Pirkanmaa"
      }
    },
    {
      "type": "Feature",
      "geometry": {
        "type": "Point",
        "coordinates": [323280.9441999998, 6800256.182599999]
      },
      "properties": {
        "id": 418010001,
        "number": 61,
        "name": "Päiväniemen rautakautinen röykkiökalmisto",
        "municipality": "Lempäälä",
        "region": "Pirkanmaa"
      }
    },
    {
      "type": "Feature",
      "geometry": {
        "type": "Point",
        "coordinates": [353871, 6805587]
      },
      "properties": {
        "id": 635010007,
        "number": 62,
        "name": "Hyllin rautakautinen röykkiöalue",
        "municipality": "Pälkäne",
        "region": "Pirkanmaa"
      }
    },
    {
      "type": "Feature",
      "geometry": {
        "type": "Point",
        "coordinates": [326114.6939000003, 6825769.940099999]
      },
      "properties": {
        "id": 837010003,
        "number": 63,
        "name": "Reuharinniemen kaksi lapinrauniota ja asuinpaikka",
        "municipality": "Tampere",
        "region": "Pirkanmaa"
      }
    },
    {
      "type": "Feature",
      "geometry": {
        "type": "Point",
        "coordinates": [341403.7368999999, 6783196.1272]
      },
      "properties": {
        "id": 908010029,
        "number": 64,
        "name": "Jutikkalan muinaisjäännösalue",
        "municipality": "Valkeakoski",
        "region": "Pirkanmaa"
      }
    },
    {
      "type": "Feature",
      "geometry": {
        "type": "Point",
        "coordinates": [341504.6933000004, 6783441.025199998]
      },
      "properties": {
        "id": 908010030,
        "number": 64,
        "name": "Jutikkalan muinaisjäännösalue",
        "municipality": "Valkeakoski",
        "region": "Pirkanmaa"
      }
    },
    {
      "type": "Feature",
      "geometry": {
        "type": "Point",
        "coordinates": [340923.9305999996, 6783428.024799999]
      },
      "properties": {
        "id": 908010038,
        "number": 64,
        "name": "Jutikkalan muinaisjäännösalue",
        "municipality": "Valkeakoski",
        "region": "Pirkanmaa"
      }
    },
    {
      "type": "Feature",
      "geometry": {
        "type": "Point",
        "coordinates": [341075.8729999997, 6783241.107900001]
      },
      "properties": {
        "id": 908010040,
        "number": 64,
        "name": "Jutikkalan muinaisjäännösalue",
        "municipality": "Valkeakoski",
        "region": "Pirkanmaa"
      }
    },
    {
      "type": "Feature",
      "geometry": {
        "type": "Point",
        "coordinates": [341049.8794999998, 6783342.0603]
      },
      "properties": {
        "id": 908010045,
        "number": 64,
        "name": "Jutikkalan muinaisjäännösalue",
        "municipality": "Valkeakoski",
        "region": "Pirkanmaa"
      }
    },
    {
      "type": "Feature",
      "geometry": {
        "type": "Point",
        "coordinates": [341872.5257000001, 6789269.688000001]
      },
      "properties": {
        "id": 908010001,
        "number": 65,
        "name": "Rapolan muinaisjäännösalue ja kulttuuriympäristö",
        "municipality": "Valkeakoski",
        "region": "Pirkanmaa"
      }
    },
    {
      "type": "Feature",
      "geometry": {
        "type": "Point",
        "coordinates": [277798.1911000004, 6806854.322000001]
      },
      "properties": {
        "id": 912010016,
        "number": 66,
        "name": "Kaukolan ja Liekosaaren rautakautiset kalmistot",
        "municipality": "Vammala",
        "region": "Pirkanmaa"
      }
    },
    {
      "type": "Feature",
      "geometry": {
        "type": "Point",
        "coordinates": [278586.8691999996, 6807635.010699999]
      },
      "properties": {
        "id": 912010018,
        "number": 66,
        "name": "Kaukolan ja Liekosaaren rautakautiset kalmistot",
        "municipality": "Vammala",
        "region": "Pirkanmaa"
      }
    },
    {
      "type": "Feature",
      "geometry": {
        "type": "Point",
        "coordinates": [312589.2196000004, 6804659.360800002]
      },
      "properties": {
        "id": 922010009,
        "number": 67,
        "name": "Laukon muinaisjäännösalue",
        "municipality": "Vesilahti",
        "region": "Pirkanmaa"
      }
    },
    {
      "type": "Feature",
      "geometry": {
        "type": "Point",
        "coordinates": [313372.90770000033, 6804714.344900001]
      },
      "properties": {
        "id": 922010010,
        "number": 67,
        "name": "Laukon muinaisjäännösalue",
        "municipality": "Vesilahti",
        "region": "Pirkanmaa"
      }
    },
    {
      "type": "Feature",
      "geometry": {
        "type": "Point",
        "coordinates": [314095.61730000004, 6804750.331900001]
      },
      "properties": {
        "id": 922010011,
        "number": 67,
        "name": "Laukon muinaisjäännösalue",
        "municipality": "Vesilahti",
        "region": "Pirkanmaa"
      }
    },
    {
      "type": "Feature",
      "geometry": {
        "type": "Point",
        "coordinates": [331927.05869999994, 6894382.395799998]
      },
      "properties": {
        "id": 936010002,
        "number": 68,
        "name": "Oraniemen varhaismetallikautiset lapinrauniot",
        "municipality": "Virrat",
        "region": "Pirkanmaa"
      }
    },
    {
      "type": "Feature",
      "geometry": {
        "type": "Point",
        "coordinates": [490014.21190000046, 6729355.4759]
      },
      "properties": {
        "id": 754010011,
        "number": 69,
        "name": "Ankkapurhan kivikautinen asuinpaikka",
        "municipality": "Anjalankoski",
        "region": "Kymenlaakso"
      }
    },
    {
      "type": "Feature",
      "geometry": {
        "type": "Point",
        "coordinates": [456307.5614, 6776876.1908]
      },
      "properties": {
        "id": 142010042,
        "number": 70,
        "name": "Konniveden Haukkavuoren kalliomaalaus",
        "municipality": "Iitti",
        "region": "Kymenlaakso"
      }
    },
    {
      "type": "Feature",
      "geometry": {
        "type": "Point",
        "coordinates": [470160.04530000035, 6763820.51]
      },
      "properties": {
        "id": 142010044,
        "number": 71,
        "name": "Hiidensalmen varhaismetallikautiset lapinrauniot",
        "municipality": "Iitti",
        "region": "Kymenlaakso"
      }
    },
    {
      "type": "Feature",
      "geometry": {
        "type": "Point",
        "coordinates": [477958.8256999999, 6781834.298999999]
      },
      "properties": {
        "id": 163010005,
        "number": 72,
        "name": "Pukkisaaren muinaisjäännökset",
        "municipality": "Jaala",
        "region": "Kymenlaakso"
      }
    },
    {
      "type": "Feature",
      "geometry": {
        "type": "Point",
        "coordinates": [498260.98890000023, 6708633.854]
      },
      "properties": {
        "id": 285010002,
        "number": 73,
        "name": "Höyterin pronssikautiset hautaröykkiöt ja laivanmuotoiset latomukset",
        "municipality": "Kotka",
        "region": "Kymenlaakso"
      }
    },
    {
      "type": "Feature",
      "geometry": {
        "type": "Point",
        "coordinates": [499135, 6708813]
      },
      "properties": {
        "id": 285010003,
        "number": 73,
        "name": "Höyterin pronssikautiset hautaröykkiöt ja laivanmuotoiset latomukset",
        "municipality": "Kotka",
        "region": "Kymenlaakso"
      }
    },
    {
      "type": "Feature",
      "geometry": {
        "type": "Point",
        "coordinates": [499310.56740000006, 6708783.802999999]
      },
      "properties": {
        "id": 285010004,
        "number": 73,
        "name": "Höyterin pronssikautiset hautaröykkiöt ja laivanmuotoiset latomukset",
        "municipality": "Kotka",
        "region": "Kymenlaakso"
      }
    },
    {
      "type": "Feature",
      "geometry": {
        "type": "Point",
        "coordinates": [499372, 6708746]
      },
      "properties": {
        "id": 285010005,
        "number": 73,
        "name": "Höyterin pronssikautiset hautaröykkiöt ja laivanmuotoiset latomukset",
        "municipality": "Kotka",
        "region": "Kymenlaakso"
      }
    },
    {
      "type": "Feature",
      "geometry": {
        "type": "Point",
        "coordinates": [499469, 6708670]
      },
      "properties": {
        "id": 285010006,
        "number": 73,
        "name": "Höyterin pronssikautiset hautaröykkiöt ja laivanmuotoiset latomukset",
        "municipality": "Kotka",
        "region": "Kymenlaakso"
      }
    },
    {
      "type": "Feature",
      "geometry": {
        "type": "Point",
        "coordinates": [499477, 6708987]
      },
      "properties": {
        "id": 285010007,
        "number": 73,
        "name": "Höyterin pronssikautiset hautaröykkiöt ja laivanmuotoiset latomukset",
        "municipality": "Kotka",
        "region": "Kymenlaakso"
      }
    },
    {
      "type": "Feature",
      "geometry": {
        "type": "Point",
        "coordinates": [499722, 6708958]
      },
      "properties": {
        "id": 285010008,
        "number": 73,
        "name": "Höyterin pronssikautiset hautaröykkiöt ja laivanmuotoiset latomukset",
        "municipality": "Kotka",
        "region": "Kymenlaakso"
      }
    },
    {
      "type": "Feature",
      "geometry": {
        "type": "Point",
        "coordinates": [488910, 6716864]
      },
      "properties": {
        "id": 285010017,
        "number": 74,
        "name": "Kymin Niskasuon kivikautinen asuinpaikka",
        "municipality": "Kotka",
        "region": "Kymenlaakso"
      }
    },
    {
      "type": "Feature",
      "geometry": {
        "type": "Point",
        "coordinates": [531107.6534000002, 6732778.294]
      },
      "properties": {
        "id": 489010022,
        "number": 75,
        "name": "Mustasuon jatulintarha",
        "municipality": "Miehikkälä",
        "region": "Kymenlaakso"
      }
    },
    {
      "type": "Feature",
      "geometry": {
        "type": "Point",
        "coordinates": [487686, 6691798]
      },
      "properties": {
        "id": 624010003,
        "number": 76,
        "name": "Kaunissaaren ryssänuunit",
        "municipality": "Pyhtää",
        "region": "Kymenlaakso"
      }
    },
    {
      "type": "Feature",
      "geometry": {
        "type": "Point",
        "coordinates": [478009.26659999974, 6682594.238700001]
      },
      "properties": {
        "id": 624010001,
        "number": 77,
        "name": "Mustaviirin jatulintarha",
        "municipality": "Pyhtää",
        "region": "Kymenlaakso"
      }
    },
    {
      "type": "Feature",
      "geometry": {
        "type": "Point",
        "coordinates": [477254.4791000001, 6702943.0416]
      },
      "properties": {
        "id": 624010021,
        "number": 78,
        "name": "Strukankallioiden rautakautinen hautaröykkiöalue",
        "municipality": "Pyhtää",
        "region": "Kymenlaakso"
      }
    },
    {
      "type": "Feature",
      "geometry": {
        "type": "Point",
        "coordinates": [476594.7440999998, 6702931.0505]
      },
      "properties": {
        "id": 624010022,
        "number": 78,
        "name": "Strukankallioiden rautakautinen hautaröykkiöalue",
        "municipality": "Pyhtää",
        "region": "Kymenlaakso"
      }
    },
    {
      "type": "Feature",
      "geometry": {
        "type": "Point",
        "coordinates": [480391.1485000001, 6769922.472999999]
      },
      "properties": {
        "id": 909010001,
        "number": 79,
        "name": "Verlan kalliomaalaus",
        "municipality": "Valkeala",
        "region": "Kymenlaakso"
      }
    },
    {
      "type": "Feature",
      "geometry": {
        "type": "Point",
        "coordinates": [521851.55480000004, 6696648.7893]
      },
      "properties": {
        "id": 917010059,
        "number": 80,
        "name": "Tammion Västärin rautakautiset hautaröykkiöt",
        "municipality": "Vehkalahti",
        "region": "Kymenlaakso"
      }
    },
    {
      "type": "Feature",
      "geometry": {
        "type": "Point",
        "coordinates": [523390.8995000003, 6703735.945]
      },
      "properties": {
        "id": 935010039,
        "number": 81,
        "name": "Vähä-Harvajanniemen pronssikautiset hautaröykkiöt",
        "municipality": "Virolahti",
        "region": "Kymenlaakso"
      }
    },
    {
      "type": "Feature",
      "geometry": {
        "type": "Point",
        "coordinates": [562744.7801999999, 6760803.148]
      },
      "properties": {
        "id": 405010012,
        "number": 82,
        "name": "Kauskilan Kappelinmäen rautakautinen ja keskiaikainen kalmisto",
        "municipality": "Lappeenranta",
        "region": "Etelä-Karjala"
      }
    },
    {
      "type": "Feature",
      "geometry": {
        "type": "Point",
        "coordinates": [542472.9177999999, 6767050.5397]
      },
      "properties": {
        "id": 416010004,
        "number": 83,
        "name": "Ruominkapian kalliomaalaus",
        "municipality": "Lemi",
        "region": "Etelä-Karjala"
      }
    },
    {
      "type": "Feature",
      "geometry": {
        "type": "Point",
        "coordinates": [520202, 6765232]
      },
      "properties": {
        "id": 441010003,
        "number": 84,
        "name": "Kalaniemi 2:n kalliomaalaus",
        "municipality": "Luumäki",
        "region": "Etelä-Karjala"
      }
    },
    {
      "type": "Feature",
      "geometry": {
        "type": "Point",
        "coordinates": [628193.1065999996, 6832624.501600001]
      },
      "properties": {
        "id": 580010055,
        "number": 85,
        "name": "Romanonkankaan pyyntikuopat",
        "municipality": "Parikkala",
        "region": "Etelä-Karjala"
      }
    },
    {
      "type": "Feature",
      "geometry": {
        "type": "Point",
        "coordinates": [636127, 6821398]
      },
      "properties": {
        "id": 580010023,
        "number": 86,
        "name": "Silvun kuppikivi",
        "municipality": "Parikkala",
        "region": "Etelä-Karjala"
      }
    },
    {
      "type": "Feature",
      "geometry": {
        "type": "Point",
        "coordinates": [617925, 6818994]
      },
      "properties": {
        "id": 689010010,
        "number": 87,
        "name": "Haukkavuoren historiallinen rajamerkki",
        "municipality": "Rautjärvi",
        "region": "Etelä-Karjala"
      }
    },
    {
      "type": "Feature",
      "geometry": {
        "type": "Point",
        "coordinates": [587251.7608000003, 6794013.882100001]
      },
      "properties": {
        "id": 700010016,
        "number": 88,
        "name": "Kolmiköytisvuoren kalliomaalaus",
        "municipality": "Ruokolahti",
        "region": "Etelä-Karjala"
      }
    },
    {
      "type": "Feature",
      "geometry": {
        "type": "Point",
        "coordinates": [577128.8139000004, 6800187.353700001]
      },
      "properties": {
        "id": 700010013,
        "number": 89,
        "name": "Niemenkainalosaaren varhaismetallikautinen lapinraunio",
        "municipality": "Ruokolahti",
        "region": "Etelä-Karjala"
      }
    },
    {
      "type": "Feature",
      "geometry": {
        "type": "Point",
        "coordinates": [647798.1591999996, 6843179.337299999]
      },
      "properties": {
        "id": 728010008,
        "number": 90,
        "name": "Kokkosenmäen kuppikivi",
        "municipality": "Saari",
        "region": "Etelä-Karjala"
      }
    },
    {
      "type": "Feature",
      "geometry": {
        "type": "Point",
        "coordinates": [530797.5268000001, 6787112.410599999]
      },
      "properties": {
        "id": 739010009,
        "number": 91,
        "name": "Rovastinojan kivikautinen asuinpaikka ja asumuspainanteet",
        "municipality": "Savitaipale",
        "region": "Etelä-Karjala"
      }
    },
    {
      "type": "Feature",
      "geometry": {
        "type": "Point",
        "coordinates": [560065.7954000002, 6775537.204]
      },
      "properties": {
        "id": 831010018,
        "number": 92,
        "name": "Kuivaketveleen linnavuori",
        "municipality": "Taipalsaari",
        "region": "Etelä-Karjala"
      }
    },
    {
      "type": "Feature",
      "geometry": {
        "type": "Point",
        "coordinates": [559506.0136000002, 6777936.234300001]
      },
      "properties": {
        "id": 831010006,
        "number": 93,
        "name": "Vaaterannan kivikautinen kalmisto ja asuinpaikka",
        "municipality": "Taipalsaari",
        "region": "Etelä-Karjala"
      }
    },
    {
      "type": "Feature",
      "geometry": {
        "type": "Point",
        "coordinates": [656764.4945999999, 6855364.463199999]
      },
      "properties": {
        "id": 891010003,
        "number": 94,
        "name": "Papinniemen ortodoksikylä",
        "municipality": "Uukuniemi",
        "region": "Etelä-Karjala"
      }
    },
    {
      "type": "Feature",
      "geometry": {
        "type": "Point",
        "coordinates": [587831, 6926457]
      },
      "properties": {
        "id": 90010016,
        "number": 95,
        "name": "Hoikansaaren, Syrjäsaaren ja Linjasaaren varhaismetallikautiset lapinrauniot",
        "municipality": "Heinävesi",
        "region": "Etelä-Savo"
      }
    },
    {
      "type": "Feature",
      "geometry": {
        "type": "Point",
        "coordinates": [588036, 6926015]
      },
      "properties": {
        "id": 90010017,
        "number": 95,
        "name": "Hoikansaaren, Syrjäsaaren ja Linjasaaren varhaismetallikautiset lapinrauniot",
        "municipality": "Heinävesi",
        "region": "Etelä-Savo"
      }
    },
    {
      "type": "Feature",
      "geometry": {
        "type": "Point",
        "coordinates": [586990.3134000003, 6926984.327399999]
      },
      "properties": {
        "id": 90010018,
        "number": 95,
        "name": "Hoikansaaren, Syrjäsaaren ja Linjasaaren varhaismetallikautiset lapinrauniot",
        "municipality": "Heinävesi",
        "region": "Etelä-Savo"
      }
    },
    {
      "type": "Feature",
      "geometry": {
        "type": "Point",
        "coordinates": [590792.8461999996, 6910802.855999999]
      },
      "properties": {
        "id": 90010003,
        "number": 96,
        "name": "Vierunvuoren kalliomaalaus",
        "municipality": "Heinävesi",
        "region": "Etelä-Savo"
      }
    },
    {
      "type": "Feature",
      "geometry": {
        "type": "Point",
        "coordinates": [471341.16110000014, 6855424.6488999985]
      },
      "properties": {
        "id": 97010004,
        "number": 97,
        "name": "Hahlavuoren kalliomaalaus",
        "municipality": "Hirvensalmi",
        "region": "Etelä-Savo"
      }
    },
    {
      "type": "Feature",
      "geometry": {
        "type": "Point",
        "coordinates": [528977.9749999996, 6852955.893599998]
      },
      "properties": {
        "id": 178010004,
        "number": 98,
        "name": "Kappelinpellon keskiaikainen hautausmaa",
        "municipality": "Juva",
        "region": "Etelä-Savo"
      }
    },
    {
      "type": "Feature",
      "geometry": {
        "type": "Point",
        "coordinates": [549124, 6829750]
      },
      "properties": {
        "id": 178010003,
        "number": 99,
        "name": "Sarkavuoren ja Sarkaslammen kalliomaalaukset",
        "municipality": "Juva",
        "region": "Etelä-Savo"
      }
    },
    {
      "type": "Feature",
      "geometry": {
        "type": "Point",
        "coordinates": [549269.9100000001, 6829355.481199998]
      },
      "properties": {
        "id": 178010142,
        "number": 99,
        "name": "Sarkavuoren ja Sarkaslammen kalliomaalaukset",
        "municipality": "Juva",
        "region": "Etelä-Savo"
      }
    },
    {
      "type": "Feature",
      "geometry": {
        "type": "Point",
        "coordinates": [607004, 6869980]
      },
      "properties": {
        "id": 246010033,
        "number": 100,
        "name": "Hattukallion kuppikivi",
        "municipality": "Kerimäki",
        "region": "Etelä-Savo"
      }
    },
    {
      "type": "Feature",
      "geometry": {
        "type": "Point",
        "coordinates": [629484.3759000003, 6881237.9263]
      },
      "properties": {
        "id": 246010105,
        "number": 101,
        "name": "Martinniemen kivikautiset ja varhaismetallikautiset asuinpaikat sekä varhaismetallikautinen lapinraunio",
        "municipality": "Kerimäki",
        "region": "Etelä-Savo"
      }
    },
    {
      "type": "Feature",
      "geometry": {
        "type": "Point",
        "coordinates": [629309.4479999999, 6881109.9778]
      },
      "properties": {
        "id": 246010110,
        "number": 101,
        "name": "Martinniemen kivikautiset ja varhaismetallikautiset asuinpaikat sekä varhaismetallikautinen lapinraunio",
        "municipality": "Kerimäki",
        "region": "Etelä-Savo"
      }
    },
    {
      "type": "Feature",
      "geometry": {
        "type": "Point",
        "coordinates": [516623.04810000025, 6829895.125999998]
      },
      "properties": {
        "id": 492010008,
        "number": 102,
        "name": "Otralan linnavuori",
        "municipality": "Mikkeli",
        "region": "Etelä-Savo"
      }
    },
    {
      "type": "Feature",
      "geometry": {
        "type": "Point",
        "coordinates": [514184.00710000005, 6834633.202500001]
      },
      "properties": {
        "id": 491010007,
        "number": 103,
        "name": "Tuukkalan ja Latokallion myöhäisrautakautiset kalmistot ja Moisionpellon rautakautinen asuinpaikka",
        "municipality": "Mikkeli",
        "region": "Etelä-Savo"
      }
    },
    {
      "type": "Feature",
      "geometry": {
        "type": "Point",
        "coordinates": [514473.8925999999, 6835382.9036]
      },
      "properties": {
        "id": 491010012,
        "number": 103,
        "name": "Tuukkalan ja Latokallion myöhäisrautakautiset kalmistot ja Moisionpellon rautakautinen asuinpaikka",
        "municipality": "Mikkeli",
        "region": "Etelä-Savo"
      }
    },
    {
      "type": "Feature",
      "geometry": {
        "type": "Point",
        "coordinates": [514493.8761, 6835311.670699999]
      },
      "properties": {
        "id": 491010031,
        "number": 103,
        "name": "Tuukkalan ja Latokallion myöhäisrautakautiset kalmistot ja Moisionpellon rautakautinen asuinpaikka",
        "municipality": "Mikkeli",
        "region": "Etelä-Savo"
      }
    },
    {
      "type": "Feature",
      "geometry": {
        "type": "Point",
        "coordinates": [502288.50179999974, 6904455.049600001]
      },
      "properties": {
        "id": 594010001,
        "number": 104,
        "name": "Naarajärven kivi- ja varhaismetallikautinen asuinpaikka",
        "municipality": "Pieksämäki",
        "region": "Etelä-Savo"
      }
    },
    {
      "type": "Feature",
      "geometry": {
        "type": "Point",
        "coordinates": [616440.7618000004, 6851209.9673999995]
      },
      "properties": {
        "id": 618010050,
        "number": 105,
        "name": "Paaslahden kivikautinen asuinpaikka",
        "municipality": "Punkaharju",
        "region": "Etelä-Savo"
      }
    },
    {
      "type": "Feature",
      "geometry": {
        "type": "Point",
        "coordinates": [557266.7366000004, 6817780.177900001]
      },
      "properties": {
        "id": 623010013,
        "number": 106,
        "name": "Kärmelahden kivikautinen asuinpaikka",
        "municipality": "Puumala",
        "region": "Etelä-Savo"
      }
    },
    {
      "type": "Feature",
      "geometry": {
        "type": "Point",
        "coordinates": [575229.2392999995, 6878835.670499999]
      },
      "properties": {
        "id": 681010003,
        "number": 107,
        "name": "Ketveleenlahden varhaismetallikautiset lapinrauniot",
        "municipality": "Rantasalmi",
        "region": "Etelä-Savo"
      }
    },
    {
      "type": "Feature",
      "geometry": {
        "type": "Point",
        "coordinates": [529018.1376999998, 6812382.2322]
      },
      "properties": {
        "id": 696010003,
        "number": 108,
        "name": "Astuvansalmen ja Uittamonsalmen kalliomaalaukset",
        "municipality": "Ristiina",
        "region": "Etelä-Savo"
      }
    },
    {
      "type": "Feature",
      "geometry": {
        "type": "Point",
        "coordinates": [519931.7856999999, 6813791.620999999]
      },
      "properties": {
        "id": 696010006,
        "number": 108,
        "name": "Astuvansalmen ja Uittamonsalmen kalliomaalaukset",
        "municipality": "Ristiina",
        "region": "Etelä-Savo"
      }
    },
    {
      "type": "Feature",
      "geometry": {
        "type": "Point",
        "coordinates": [519451.9483000003, 6819819.1884]
      },
      "properties": {
        "id": 696010023,
        "number": 109,
        "name": "Kitulansuon varhaismetallikautinen asuinpaikka ja lspinrauniot sekä Kotilahden mahdollinen rautakautinen uhripaikka",
        "municipality": "Ristiina",
        "region": "Etelä-Savo"
      }
    },
    {
      "type": "Feature",
      "geometry": {
        "type": "Point",
        "coordinates": [519531.9241000004, 6819529.309099998]
      },
      "properties": {
        "id": 696010024,
        "number": 109,
        "name": "Kitulansuon varhaismetallikautinen asuinpaikka ja lspinrauniot sekä Kotilahden mahdollinen rautakautinen uhripaikka",
        "municipality": "Ristiina",
        "region": "Etelä-Savo"
      }
    },
    {
      "type": "Feature",
      "geometry": {
        "type": "Point",
        "coordinates": [519561.9084000001, 6819479.3279]
      },
      "properties": {
        "id": 696010025,
        "number": 109,
        "name": "Kitulansuon varhaismetallikautinen asuinpaikka ja lspinrauniot sekä Kotilahden mahdollinen rautakautinen uhripaikka",
        "municipality": "Ristiina",
        "region": "Etelä-Savo"
      }
    },
    {
      "type": "Feature",
      "geometry": {
        "type": "Point",
        "coordinates": [519641.8746999996, 6819429.346900001]
      },
      "properties": {
        "id": 696010026,
        "number": 109,
        "name": "Kitulansuon varhaismetallikautinen asuinpaikka ja lspinrauniot sekä Kotilahden mahdollinen rautakautinen uhripaikka",
        "municipality": "Ristiina",
        "region": "Etelä-Savo"
      }
    },
    {
      "type": "Feature",
      "geometry": {
        "type": "Point",
        "coordinates": [519791.82189999986, 6819129.469700001]
      },
      "properties": {
        "id": 696010027,
        "number": 109,
        "name": "Kitulansuon varhaismetallikautinen asuinpaikka ja lspinrauniot sekä Kotilahden mahdollinen rautakautinen uhripaikka",
        "municipality": "Ristiina",
        "region": "Etelä-Savo"
      }
    },
    {
      "type": "Feature",
      "geometry": {
        "type": "Point",
        "coordinates": [591306.7794000003, 6875348.1435]
      },
      "properties": {
        "id": 740010006,
        "number": 110,
        "name": "Juvolan ja Valkkilan kuppikivet",
        "municipality": "Savonlinna",
        "region": "Etelä-Savo"
      }
    },
    {
      "type": "Feature",
      "geometry": {
        "type": "Point",
        "coordinates": [591355.7599999998, 6875196.200199999]
      },
      "properties": {
        "id": 1000002424,
        "number": 110,
        "name": "Juvolan ja Valkkilan kuppikivet",
        "municipality": "Savonlinna",
        "region": "Etelä-Savo"
      }
    },
    {
      "type": "Feature",
      "geometry": {
        "type": "Point",
        "coordinates": [599946.3513000002, 6864505.545200001]
      },
      "properties": {
        "id": 1000002408,
        "number": 111,
        "name": "Tynkkylänjoen Kylmäniemen esihistorialliset asuinpaikat",
        "municipality": "Savonlinna",
        "region": "Etelä-Savo"
      }
    },
    {
      "type": "Feature",
      "geometry": {
        "type": "Point",
        "coordinates": [599931.0444, 6864351.6336]
      },
      "properties": {
        "id": 1000002451,
        "number": 111,
        "name": "Tynkkylänjoen Kylmäniemen esihistorialliset asuinpaikat",
        "municipality": "Savonlinna",
        "region": "Etelä-Savo"
      }
    },
    {
      "type": "Feature",
      "geometry": {
        "type": "Point",
        "coordinates": [586412.8246999998, 6857389.3561]
      },
      "properties": {
        "id": 740010140,
        "number": 112,
        "name": "Rapakon kalliomaalaus",
        "municipality": "Savonlinna",
        "region": "Etelä-Savo"
      }
    },
    {
      "type": "Feature",
      "geometry": {
        "type": "Point",
        "coordinates": [569661.6205000002, 6847388.304200001]
      },
      "properties": {
        "id": 768010009,
        "number": 113,
        "name": "Pisamalahden linnavuori",
        "municipality": "Sulkava",
        "region": "Etelä-Savo"
      }
    },
    {
      "type": "Feature",
      "geometry": {
        "type": "Point",
        "coordinates": [701584.0389999999, 6952013.688000001]
      },
      "properties": {
        "id": 146010021,
        "number": 114,
        "name": "Havukkakallion muinaislinna",
        "municipality": "Ilomantsi",
        "region": "Pohjois-Karjala"
      }
    },
    {
      "type": "Feature",
      "geometry": {
        "type": "Point",
        "coordinates": [639596.2904000003, 6885069.4208]
      },
      "properties": {
        "id": 248010004,
        "number": 115,
        "name": "Pirunpöytä - ajoittamaton kuppikivi",
        "municipality": "Kesälahti",
        "region": "Pohjois-Karjala"
      }
    },
    {
      "type": "Feature",
      "geometry": {
        "type": "Point",
        "coordinates": [639909.2511, 6864382.752900001]
      },
      "properties": {
        "id": 248010002,
        "number": 116,
        "name": "Sirnihtan kivikautinen ja varhaismetallikautinen asuinpaikka",
        "municipality": "Kesälahti",
        "region": "Pohjois-Karjala"
      }
    },
    {
      "type": "Feature",
      "geometry": {
        "type": "Point",
        "coordinates": [639215.4101, 6892185.550700001]
      },
      "properties": {
        "id": 260010037,
        "number": 117,
        "name": "Kalliolahden varhaismetallikautinen lapinraunio",
        "municipality": "Kitee",
        "region": "Pohjois-Karjala"
      }
    },
    {
      "type": "Feature",
      "geometry": {
        "type": "Point",
        "coordinates": [624575.6207999997, 7074818.920400001]
      },
      "properties": {
        "id": 541010012,
        "number": 118,
        "name": "Kalmoniemen ortodoksikalmisto ja kivikautinen asuinpaikka",
        "municipality": "Nurmes",
        "region": "Pohjois-Karjala"
      }
    },
    {
      "type": "Feature",
      "geometry": {
        "type": "Point",
        "coordinates": [606772.2471000003, 6952443.147999998]
      },
      "properties": {
        "id": 309010017,
        "number": 119,
        "name": "Lintutornin kivikautinen asuinpaikka",
        "municipality": "Outokumpu",
        "region": "Pohjois-Karjala"
      }
    },
    {
      "type": "Feature",
      "geometry": {
        "type": "Point",
        "coordinates": [607046.1213999996, 6956604.475400001]
      },
      "properties": {
        "id": 309010002,
        "number": 120,
        "name": "Sätöksen kivikautinen asuinpaikka",
        "municipality": "Outokumpu",
        "region": "Pohjois-Karjala"
      }
    },
    {
      "type": "Feature",
      "geometry": {
        "type": "Point",
        "coordinates": [653936.4008999998, 6912338.491700001]
      },
      "properties": {
        "id": 707010045,
        "number": 121,
        "name": "Vihin kivikautinen asuinpaikka",
        "municipality": "Rääkkylä",
        "region": "Pohjois-Karjala"
      }
    },
    {
      "type": "Feature",
      "geometry": {
        "type": "Point",
        "coordinates": [657351.0438000001, 6908413.0887]
      },
      "properties": {
        "id": 848010011,
        "number": 122,
        "name": "Piilolahden kivikautinen asuinpaikka",
        "municipality": "Tohmajärvi",
        "region": "Pohjois-Karjala"
      }
    },
    {
      "type": "Feature",
      "geometry": {
        "type": "Point",
        "coordinates": [483605.46949999966, 7047947.2399]
      },
      "properties": {
        "id": 263010031,
        "number": 123,
        "name": "Paljakan kuppikallio",
        "municipality": "Kiuruvesi",
        "region": "Pohjois-Savo"
      }
    },
    {
      "type": "Feature",
      "geometry": {
        "type": "Point",
        "coordinates": [541272.5138999997, 6979395.041999999]
      },
      "properties": {
        "id": 297010010,
        "number": 124,
        "name": "Kuusikkolahdenniemen varhaismetallikautiset lapinrauniot",
        "municipality": "Kuopio",
        "region": "Pohjois-Savo"
      }
    },
    {
      "type": "Feature",
      "geometry": {
        "type": "Point",
        "coordinates": [544751.1692000004, 6964061.228599999]
      },
      "properties": {
        "id": 297010020,
        "number": 125,
        "name": "Kuopion Hukkasen ja Vehmersalmen Korkea-Varpasen ja Lamminniemen varhaismetallikautiset lapinrauniot",
        "municipality": "Kuopio ja Vehmersalmi",
        "region": "Pohjois-Savo"
      }
    },
    {
      "type": "Feature",
      "geometry": {
        "type": "Point",
        "coordinates": [545570.8486000001, 6963081.631999999]
      },
      "properties": {
        "id": 919010003,
        "number": 125,
        "name": "Kuopion Hukkasen ja Vehmersalmen Korkea-Varpasen ja Lamminniemen varhaismetallikautiset lapinrauniot",
        "municipality": "Kuopio ja Vehmersalmi",
        "region": "Pohjois-Savo"
      }
    },
    {
      "type": "Feature",
      "geometry": {
        "type": "Point",
        "coordinates": [546560.4468, 6964191.182999998]
      },
      "properties": {
        "id": 919010005,
        "number": 125,
        "name": "Kuopion Hukkasen ja Vehmersalmen Korkea-Varpasen ja Lamminniemen varhaismetallikautiset lapinrauniot",
        "municipality": "Kuopio ja Vehmersalmi",
        "region": "Pohjois-Savo"
      }
    },
    {
      "type": "Feature",
      "geometry": {
        "type": "Point",
        "coordinates": [519371, 6992256]
      },
      "properties": {
        "id": 476010003,
        "number": 126,
        "name": "Metelinkallion varhaismetallikautiset lapinrauniot",
        "municipality": "Maaninka",
        "region": "Pohjois-Savo"
      }
    },
    {
      "type": "Feature",
      "geometry": {
        "type": "Point",
        "coordinates": [566662.1738, 7010212.734000001]
      },
      "properties": {
        "id": 534010018,
        "number": 127,
        "name": "Pisan historiallinen rajamerkki",
        "municipality": "Nilsiä",
        "region": "Pohjois-Savo"
      }
    },
    {
      "type": "Feature",
      "geometry": {
        "type": "Point",
        "coordinates": [480077.0645000003, 7000716.229200002]
      },
      "properties": {
        "id": 595010037,
        "number": 128,
        "name": "Kemilän varhaismetallikautinen lapinraunio",
        "municipality": "Pielavesi",
        "region": "Pohjois-Savo"
      }
    },
    {
      "type": "Feature",
      "geometry": {
        "type": "Point",
        "coordinates": [482146.24480000045, 6996987.743700001]
      },
      "properties": {
        "id": 595010006,
        "number": 129,
        "name": "Meijerinkankaan kivi- ja varhaismetallikautinen asuinpaikka",
        "municipality": "Pielavesi",
        "region": "Pohjois-Savo"
      }
    },
    {
      "type": "Feature",
      "geometry": {
        "type": "Point",
        "coordinates": [470571.02979999967, 6962201.692899998]
      },
      "properties": {
        "id": 921010001,
        "number": 130,
        "name": "Itäsaaren, Korpisen ja Iso- ja Pieni-Runkkuu -saarten varhaismetallikautiset lapinrauniot",
        "municipality": "Vesanto",
        "region": "Pohjois-Savo"
      }
    },
    {
      "type": "Feature",
      "geometry": {
        "type": "Point",
        "coordinates": [469681.3810999999, 6964750.657400001]
      },
      "properties": {
        "id": 921010003,
        "number": 130,
        "name": "Itäsaaren, Korpisen ja Iso- ja Pieni-Runkkuu -saarten varhaismetallikautiset lapinrauniot",
        "municipality": "Vesanto",
        "region": "Pohjois-Savo"
      }
    },
    {
      "type": "Feature",
      "geometry": {
        "type": "Point",
        "coordinates": [471160.78670000006, 6963960.98]
      },
      "properties": {
        "id": 921010004,
        "number": 130,
        "name": "Itäsaaren, Korpisen ja Iso- ja Pieni-Runkkuu -saarten varhaismetallikautiset lapinrauniot",
        "municipality": "Vesanto",
        "region": "Pohjois-Savo"
      }
    },
    {
      "type": "Feature",
      "geometry": {
        "type": "Point",
        "coordinates": [470820.92569999956, 6963631.115899999]
      },
      "properties": {
        "id": 921010005,
        "number": 130,
        "name": "Itäsaaren, Korpisen ja Iso- ja Pieni-Runkkuu -saarten varhaismetallikautiset lapinrauniot",
        "municipality": "Vesanto",
        "region": "Pohjois-Savo"
      }
    },
    {
      "type": "Feature",
      "geometry": {
        "type": "Point",
        "coordinates": [445311.4241000004, 6905054.5814]
      },
      "properties": {
        "id": 180010006,
        "number": 131,
        "name": "Pyhäsaaren ja Oksasaaren varhaismetallikautiset lapinrauniot",
        "municipality": "Jyväskylä",
        "region": "Keski-Suomi"
      }
    },
    {
      "type": "Feature",
      "geometry": {
        "type": "Point",
        "coordinates": [444391.7971999999, 6903985.002999999]
      },
      "properties": {
        "id": 180010003,
        "number": 131,
        "name": "Pyhäsaaren ja Oksasaaren varhaismetallikautiset lapinrauniot",
        "municipality": "Jyväskylä",
        "region": "Keski-Suomi"
      }
    },
    {
      "type": "Feature",
      "geometry": {
        "type": "Point",
        "coordinates": [403938.2285000002, 6866017.1033000015]
      },
      "properties": {
        "id": 183010001,
        "number": 132,
        "name": "Linnasenmäen muinaislinna",
        "municipality": "Jämsä",
        "region": "Keski-Suomi"
      }
    },
    {
      "type": "Feature",
      "geometry": {
        "type": "Point",
        "coordinates": [434206.9877000004, 6880852.271000002]
      },
      "properties": {
        "id": 277010036,
        "number": 133,
        "name": "Tarvaannenän ja Koukunkallion varhaismetallikautiset lapinrauniot",
        "municipality": "Jyväskylä",
        "region": "Keski-Suomi"
      }
    },
    {
      "type": "Feature",
      "geometry": {
        "type": "Point",
        "coordinates": [434566.85030000005, 6880271.503199998]
      },
      "properties": {
        "id": 277010037,
        "number": 133,
        "name": "Tarvaannenän ja Koukunkallion varhaismetallikautiset lapinrauniot",
        "municipality": "Jyväskylä",
        "region": "Keski-Suomi"
      }
    },
    {
      "type": "Feature",
      "geometry": {
        "type": "Point",
        "coordinates": [404350.20359999966, 6834415.810699999]
      },
      "properties": {
        "id": 291010007,
        "number": 134,
        "name": "Päijälän linnavuori",
        "municipality": "Kuhmoinen",
        "region": "Keski-Suomi"
      }
    },
    {
      "type": "Feature",
      "geometry": {
        "type": "Point",
        "coordinates": [451748.78309999965, 6917729.5101]
      },
      "properties": {
        "id": 410010020,
        "number": 135,
        "name": "Hartikan kivikautinen asuinpaikka ja kalmistoalue",
        "municipality": "Laukaa",
        "region": "Keski-Suomi"
      }
    },
    {
      "type": "Feature",
      "geometry": {
        "type": "Point",
        "coordinates": [448190.1974999998, 6921098.1314]
      },
      "properties": {
        "id": 410010004,
        "number": 136,
        "name": "Saraakallion kalliomaalaukset",
        "municipality": "Laukaa",
        "region": "Keski-Suomi"
      }
    },
    {
      "type": "Feature",
      "geometry": {
        "type": "Point",
        "coordinates": [417958.90830000024, 7037349.268100001]
      },
      "properties": {
        "id": 601010046,
        "number": 137,
        "name": "Peukaloiskankaan muinaisjäännösalue",
        "municipality": "Pihtipudas",
        "region": "Keski-Suomi"
      }
    },
    {
      "type": "Feature",
      "geometry": {
        "type": "Point",
        "coordinates": [417893.9386999998, 7037252.3046]
      },
      "properties": {
        "id": 601010071,
        "number": 137,
        "name": "Peukaloiskankaan muinaisjäännösalue",
        "municipality": "Pihtipudas",
        "region": "Keski-Suomi"
      }
    },
    {
      "type": "Feature",
      "geometry": {
        "type": "Point",
        "coordinates": [417835.95749999955, 7037295.2870000005]
      },
      "properties": {
        "id": 601010072,
        "number": 137,
        "name": "Peukaloiskankaan muinaisjäännösalue",
        "municipality": "Pihtipudas",
        "region": "Keski-Suomi"
      }
    },
    {
      "type": "Feature",
      "geometry": {
        "type": "Point",
        "coordinates": [417811.96949999966, 7037032.3924]
      },
      "properties": {
        "id": 601010073,
        "number": 137,
        "name": "Peukaloiskankaan muinaisjäännösalue",
        "municipality": "Pihtipudas",
        "region": "Keski-Suomi"
      }
    },
    {
      "type": "Feature",
      "geometry": {
        "type": "Point",
        "coordinates": [417841.9522000002, 7037435.232799999]
      },
      "properties": {
        "id": 601010074,
        "number": 137,
        "name": "Peukaloiskankaan muinaisjäännösalue",
        "municipality": "Pihtipudas",
        "region": "Keski-Suomi"
      }
    },
    {
      "type": "Feature",
      "geometry": {
        "type": "Point",
        "coordinates": [417774.9779000003, 7037546.1833]
      },
      "properties": {
        "id": 601010075,
        "number": 137,
        "name": "Peukaloiskankaan muinaisjäännösalue",
        "municipality": "Pihtipudas",
        "region": "Keski-Suomi"
      }
    },
    {
      "type": "Feature",
      "geometry": {
        "type": "Point",
        "coordinates": [414273.7324999999, 6948837.847100001]
      },
      "properties": {
        "id": 729010026,
        "number": 138,
        "name": "Summassaaren esihistorialliset muinaisjäännöskohteet",
        "municipality": "Saarijärvi",
        "region": "Keski-Suomi"
      }
    },
    {
      "type": "Feature",
      "geometry": {
        "type": "Point",
        "coordinates": [414845, 6948725]
      },
      "properties": {
        "id": 729010027,
        "number": 138,
        "name": "Summassaaren esihistorialliset muinaisjäännöskohteet",
        "municipality": "Saarijärvi",
        "region": "Keski-Suomi"
      }
    },
    {
      "type": "Feature",
      "geometry": {
        "type": "Point",
        "coordinates": [415548.2159000002, 6948421.014400002]
      },
      "properties": {
        "id": 729010028,
        "number": 138,
        "name": "Summassaaren esihistorialliset muinaisjäännöskohteet",
        "municipality": "Saarijärvi",
        "region": "Keski-Suomi"
      }
    },
    {
      "type": "Feature",
      "geometry": {
        "type": "Point",
        "coordinates": [414886.47809999995, 6950150.322099999]
      },
      "properties": {
        "id": 729010030,
        "number": 138,
        "name": "Summassaaren esihistorialliset muinaisjäännöskohteet",
        "municipality": "Saarijärvi",
        "region": "Keski-Suomi"
      }
    },
    {
      "type": "Feature",
      "geometry": {
        "type": "Point",
        "coordinates": [414419.6662999997, 6949875.427900001]
      },
      "properties": {
        "id": 729010032,
        "number": 138,
        "name": "Summassaaren esihistorialliset muinaisjäännöskohteet",
        "municipality": "Saarijärvi",
        "region": "Keski-Suomi"
      }
    },
    {
      "type": "Feature",
      "geometry": {
        "type": "Point",
        "coordinates": [414216.7505999999, 6949541.554900002]
      },
      "properties": {
        "id": 729010033,
        "number": 138,
        "name": "Summassaaren esihistorialliset muinaisjäännöskohteet",
        "municipality": "Saarijärvi",
        "region": "Keski-Suomi"
      }
    },
    {
      "type": "Feature",
      "geometry": {
        "type": "Point",
        "coordinates": [414026.8267000001, 6949329.640900001]
      },
      "properties": {
        "id": 729010034,
        "number": 138,
        "name": "Summassaaren esihistorialliset muinaisjäännöskohteet",
        "municipality": "Saarijärvi",
        "region": "Keski-Suomi"
      }
    },
    {
      "type": "Feature",
      "geometry": {
        "type": "Point",
        "coordinates": [415334.3013000004, 6948608.941]
      },
      "properties": {
        "id": 729010055,
        "number": 138,
        "name": "Summassaaren esihistorialliset muinaisjäännöskohteet",
        "municipality": "Saarijärvi",
        "region": "Keski-Suomi"
      }
    },
    {
      "type": "Feature",
      "geometry": {
        "type": "Point",
        "coordinates": [414438.6623999998, 6949823.446899999]
      },
      "properties": {
        "id": 729010056,
        "number": 138,
        "name": "Summassaaren esihistorialliset muinaisjäännöskohteet",
        "municipality": "Saarijärvi",
        "region": "Keski-Suomi"
      }
    },
    {
      "type": "Feature",
      "geometry": {
        "type": "Point",
        "coordinates": [415069.3015999999, 6949325.999400001]
      },
      "properties": {
        "id": 729010058,
        "number": 138,
        "name": "Summassaaren esihistorialliset muinaisjäännöskohteet",
        "municipality": "Saarijärvi",
        "region": "Keski-Suomi"
      }
    },
    {
      "type": "Feature",
      "geometry": {
        "type": "Point",
        "coordinates": [414906.4693, 6949719.4868]
      },
      "properties": {
        "id": 729010062,
        "number": 138,
        "name": "Summassaaren esihistorialliset muinaisjäännöskohteet",
        "municipality": "Saarijärvi",
        "region": "Keski-Suomi"
      }
    },
    {
      "type": "Feature",
      "geometry": {
        "type": "Point",
        "coordinates": [451873.51099999994, 6972662.4059999995]
      },
      "properties": {
        "id": 992010015,
        "number": 139,
        "name": "Pyhänsalon varhaismetallikautiset lapinrauniot",
        "municipality": "Äänekoski",
        "region": "Keski-Suomi"
      }
    },
    {
      "type": "Feature",
      "geometry": {
        "type": "Point",
        "coordinates": [450968.87820000015, 6972087.632199999]
      },
      "properties": {
        "id": 992010016,
        "number": 139,
        "name": "Pyhänsalon varhaismetallikautiset lapinrauniot",
        "municipality": "Äänekoski",
        "region": "Keski-Suomi"
      }
    },
    {
      "type": "Feature",
      "geometry": {
        "type": "Point",
        "coordinates": [333693.9621000001, 6989186.305799998]
      },
      "properties": {
        "id": 5010002,
        "number": 140,
        "name": "Heikinkankaan ja Rasin kivikautinen asuinpaikka-alue",
        "municipality": "Alajärvi",
        "region": "Etelä-Pohjanmaa"
      }
    },
    {
      "type": "Feature",
      "geometry": {
        "type": "Point",
        "coordinates": [267095.8278999999, 6959792.850200001]
      },
      "properties": {
        "id": 145010014,
        "number": 141,
        "name": "Honkalanmäen kivikautinen asuinpaikka",
        "municipality": "Ilmajoki",
        "region": "Etelä-Pohjanmaa"
      }
    },
    {
      "type": "Feature",
      "geometry": {
        "type": "Point",
        "coordinates": [267547.5376000004, 6988147.467099998]
      },
      "properties": {
        "id": 152010020,
        "number": 142,
        "name": "Leväluhdan rautakautinen suokalmisto",
        "municipality": "Isokyrö",
        "region": "Pohjanmaa"
      }
    },
    {
      "type": "Feature",
      "geometry": {
        "type": "Point",
        "coordinates": [223471.50989999995, 6919337.916700002]
      },
      "properties": {
        "id": 409010050,
        "number": 143,
        "name": "Susiluolan/Varggrottanin paleoliittinen luola-asuinpaikka",
        "municipality": "Kristiinankaupunki",
        "region": "Pohjanmaa"
      }
    },
    {
      "type": "Feature",
      "geometry": {
        "type": "Point",
        "coordinates": [244342, 6983897]
      },
      "properties": {
        "id": 399010042,
        "number": 144,
        "name": "Alatalon/Jätinhaudanmaan pronssikautinen röykkiökalmisto",
        "municipality": "Laihia",
        "region": "Pohjanmaa"
      }
    },
    {
      "type": "Feature",
      "geometry": {
        "type": "Point",
        "coordinates": [236754.90240000002, 6986091.171]
      },
      "properties": {
        "id": 399010108,
        "number": 145,
        "name": "Viirikallion varhaismetallikautinen muinaisjäännösalue",
        "municipality": "Laihia",
        "region": "Pohjanmaa"
      }
    },
    {
      "type": "Feature",
      "geometry": {
        "type": "Point",
        "coordinates": [222612.59520000033, 6983322.2228999995]
      },
      "properties": {
        "id": 475010001,
        "number": 146,
        "name": "Storsjön rautakautiset muinaisjäännösalueet",
        "municipality": "Maalahti",
        "region": "Pohjanmaa"
      }
    },
    {
      "type": "Feature",
      "geometry": {
        "type": "Point",
        "coordinates": [222500.63690000027, 6984342.816300001]
      },
      "properties": {
        "id": 475010002,
        "number": 146,
        "name": "Storsjön rautakautiset muinaisjäännösalueet",
        "municipality": "Maalahti",
        "region": "Pohjanmaa"
      }
    },
    {
      "type": "Feature",
      "geometry": {
        "type": "Point",
        "coordinates": [221663.96449999977, 6985369.3959]
      },
      "properties": {
        "id": 475010004,
        "number": 146,
        "name": "Storsjön rautakautiset muinaisjäännösalueet",
        "municipality": "Maalahti",
        "region": "Pohjanmaa"
      }
    },
    {
      "type": "Feature",
      "geometry": {
        "type": "Point",
        "coordinates": [222334.69489999954, 6985856.204500001]
      },
      "properties": {
        "id": 475010005,
        "number": 146,
        "name": "Storsjön rautakautiset muinaisjäännösalueet",
        "municipality": "Maalahti",
        "region": "Pohjanmaa"
      }
    },
    {
      "type": "Feature",
      "geometry": {
        "type": "Point",
        "coordinates": [187406.60840000026, 7013338.0386000015]
      },
      "properties": {
        "id": 475010035,
        "number": 147,
        "name": "Storskärin jatulintarhat ja kivirakenteet",
        "municipality": "Maalahti",
        "region": "Pohjanmaa"
      }
    },
    {
      "type": "Feature",
      "geometry": {
        "type": "Point",
        "coordinates": [220950.31410000008, 6970660.300700001]
      },
      "properties": {
        "id": 605010006,
        "number": 148,
        "name": "Storstenrösbackenin pronssikautinen hautaröykkiöalue",
        "municipality": "Maalahti",
        "region": "Pohjanmaa"
      }
    },
    {
      "type": "Feature",
      "geometry": {
        "type": "Point",
        "coordinates": [221037.28299999982, 6968942.9912]
      },
      "properties": {
        "id": 605010005,
        "number": 149,
        "name": "Småstenrösbackenin pronssikautiset hautaröykkiöt",
        "municipality": "Närpiö",
        "region": "Pohjanmaa"
      }
    },
    {
      "type": "Feature",
      "geometry": {
        "type": "Point",
        "coordinates": [288863.7176999999, 7055476.509100001]
      },
      "properties": {
        "id": 599010016,
        "number": 150,
        "name": "Hundbackenin/Myllykankaan kivikautinen asuinpaikka",
        "municipality": "Pedersöre",
        "region": "Pohjanmaa"
      }
    },
    {
      "type": "Feature",
      "geometry": {
        "type": "Point",
        "coordinates": [308470.87090000045, 7048309.459399998]
      },
      "properties": {
        "id": 990010008,
        "number": 151,
        "name": "Svedjebackenin jätinkirkko",
        "municipality": "Pedersöre",
        "region": "Pohjanmaa"
      }
    },
    {
      "type": "Feature",
      "geometry": {
        "type": "Point",
        "coordinates": [282195.48199999984, 7032454.730999999]
      },
      "properties": {
        "id": 166010001,
        "number": 152,
        "name": "Asplandetin-Lövesmossenin pronssikautinen hautaröykkiöalue",
        "municipality": "Uusikaarlepyy",
        "region": "Pohjanmaa"
      }
    },
    {
      "type": "Feature",
      "geometry": {
        "type": "Point",
        "coordinates": [281965.5675999997, 7033052.4868]
      },
      "properties": {
        "id": 166010003,
        "number": 152,
        "name": "Asplandetin-Lövesmossenin pronssikautinen hautaröykkiöalue",
        "municipality": "Uusikaarlepyy",
        "region": "Pohjanmaa"
      }
    },
    {
      "type": "Feature",
      "geometry": {
        "type": "Point",
        "coordinates": [281834.62990000006, 7031976.922200002]
      },
      "properties": {
        "id": 166010014,
        "number": 152,
        "name": "Asplandetin-Lövesmossenin pronssikautinen hautaröykkiöalue",
        "municipality": "Uusikaarlepyy",
        "region": "Pohjanmaa"
      }
    },
    {
      "type": "Feature",
      "geometry": {
        "type": "Point",
        "coordinates": [282152.4957999997, 7032816.588300001]
      },
      "properties": {
        "id": 1000002918,
        "number": 152,
        "name": "Asplandetin-Lövesmossenin pronssikautinen hautaröykkiöalue",
        "municipality": "Uusikaarlepyy",
        "region": "Pohjanmaa"
      }
    },
    {
      "type": "Feature",
      "geometry": {
        "type": "Point",
        "coordinates": [267035.6317999996, 7014964.694200002]
      },
      "properties": {
        "id": 944010083,
        "number": 153,
        "name": "Vitmossenin varhaismetallikautinen asuinpaikka ja röykkiöt",
        "municipality": "Vöyri",
        "region": "Pohjanmaa"
      }
    },
    {
      "type": "Feature",
      "geometry": {
        "type": "Point",
        "coordinates": [335181.1239, 7053042.659000002]
      },
      "properties": {
        "id": 236010002,
        "number": 154,
        "name": "Kankaan kivikautinen asuinpaikka ja kalmistoalue",
        "municipality": "Kaustinen",
        "region": "Keski-Pohjanmaa"
      }
    },
    {
      "type": "Feature",
      "geometry": {
        "type": "Point",
        "coordinates": [324572.1749, 7112242.836800002]
      },
      "properties": {
        "id": 429010002,
        "number": 155,
        "name": "Ohtakarin jatulintarha",
        "municipality": "Lohtaja",
        "region": "Keski-Pohjanmaa"
      }
    },
    {
      "type": "Feature",
      "geometry": {
        "type": "Point",
        "coordinates": [415993.38740000036, 7125366.866900001]
      },
      "properties": {
        "id": 71010001,
        "number": 156,
        "name": "Autiokorpi ja Perttulankangas - historiallisen ajan asutus- ja viljelysjäänteitä",
        "municipality": "Haapavesi",
        "region": "Pohjois-Pohjanmaa"
      }
    },
    {
      "type": "Feature",
      "geometry": {
        "type": "Point",
        "coordinates": [417246.55900000036, 7228485.4147000015]
      },
      "properties": {
        "id": 84010005,
        "number": 157,
        "name": "Isoniemen jatulintarha",
        "municipality": "Haukipudas",
        "region": "Pohjois-Pohjanmaa"
      }
    },
    {
      "type": "Feature",
      "geometry": {
        "type": "Point",
        "coordinates": [439496, 7234850]
      },
      "properties": {
        "id": 84010001,
        "number": 158,
        "name": "Rajakankaan jätinkirkko, röykkiö ja kivikautinen asuinpaikka",
        "municipality": "Haukipudas",
        "region": "Pohjois-Pohjanmaa"
      }
    },
    {
      "type": "Feature",
      "geometry": {
        "type": "Point",
        "coordinates": [398565, 7252587]
      },
      "properties": {
        "id": 139010003,
        "number": 159,
        "name": "Krunnien jatulintarhat ja muita historiallisen ajan kivilatomuksia",
        "municipality": "Ii",
        "region": "Pohjois-Pohjanmaa"
      }
    },
    {
      "type": "Feature",
      "geometry": {
        "type": "Point",
        "coordinates": [406763.6908999998, 7255726.437600002]
      },
      "properties": {
        "id": 139010059,
        "number": 159,
        "name": "Krunnien jatulintarhat ja muita historiallisen ajan kivilatomuksia",
        "municipality": "Ii",
        "region": "Pohjois-Pohjanmaa"
      }
    },
    {
      "type": "Feature",
      "geometry": {
        "type": "Point",
        "coordinates": [406819.6688000001, 7255443.546799999]
      },
      "properties": {
        "id": 139010060,
        "number": 159,
        "name": "Krunnien jatulintarhat ja muita historiallisen ajan kivilatomuksia",
        "municipality": "Ii",
        "region": "Pohjois-Pohjanmaa"
      }
    },
    {
      "type": "Feature",
      "geometry": {
        "type": "Point",
        "coordinates": [427392.43209999986, 7245285.6954]
      },
      "properties": {
        "id": 139010031,
        "number": 160,
        "name": "Rautatiesillan kivipöytä",
        "municipality": "Ii",
        "region": "Pohjois-Pohjanmaa"
      }
    },
    {
      "type": "Feature",
      "geometry": {
        "type": "Point",
        "coordinates": [359931.9364, 7120825.503600001]
      },
      "properties": {
        "id": 208010028,
        "number": 161,
        "name": "Vuorenmaan pitkä kivilatomus",
        "municipality": "Kalajoki",
        "region": "Pohjois-Pohjanmaa"
      }
    },
    {
      "type": "Feature",
      "geometry": {
        "type": "Point",
        "coordinates": [377206.9494000003, 7135224.7806]
      },
      "properties": {
        "id": 483010001,
        "number": 162,
        "name": "Ilvessalonmäen kivikautinen röykkiö",
        "municipality": "Merijärvi",
        "region": "Pohjois-Pohjanmaa"
      }
    },
    {
      "type": "Feature",
      "geometry": {
        "type": "Point",
        "coordinates": [430631, 7205250]
      },
      "properties": {
        "id": 564010022,
        "number": 163,
        "name": "Kaakkurin Välikankaan rautakautinen kalmisto",
        "municipality": "Oulu",
        "region": "Pohjois-Pohjanmaa"
      }
    },
    {
      "type": "Feature",
      "geometry": {
        "type": "Point",
        "coordinates": [447219.57689999975, 7205983.552700002]
      },
      "properties": {
        "id": 567010002,
        "number": 164,
        "name": "Kudelmakankaan röykkiöryhmä",
        "municipality": "Oulunsalo",
        "region": "Pohjois-Pohjanmaa"
      }
    },
    {
      "type": "Feature",
      "geometry": {
        "type": "Point",
        "coordinates": [390631.4408, 7169360.097399998]
      },
      "properties": {
        "id": 582010001,
        "number": 165,
        "name": "Kastellinlinna - jätinkirkko",
        "municipality": "Raahe",
        "region": "Pohjois-Pohjanmaa"
      }
    },
    {
      "type": "Feature",
      "geometry": {
        "type": "Point",
        "coordinates": [368456.3830000004, 7159353.0473]
      },
      "properties": {
        "id": 1000007810,
        "number": 166,
        "name": "Hanhikiven historiallinen rajamerkki",
        "municipality": "Pyhäjoki",
        "region": "Pohjois-Pohjanmaa"
      }
    },
    {
      "type": "Feature",
      "geometry": {
        "type": "Point",
        "coordinates": [366707.1486999998, 7141145.361299999]
      },
      "properties": {
        "id": 625010001,
        "number": 167,
        "name": "Varekankaan varhaismetallikautinen röykkiöryhmä",
        "municipality": "Pyhäjoki",
        "region": "Pohjois-Pohjanmaa"
      }
    },
    {
      "type": "Feature",
      "geometry": {
        "type": "Point",
        "coordinates": [398894.0728000002, 7185111.7973]
      },
      "properties": {
        "id": 748010001,
        "number": 168,
        "name": "Papinkankaan pyyntikuoppakohde",
        "municipality": "Siikajoki",
        "region": "Pohjois-Pohjanmaa"
      }
    },
    {
      "type": "Feature",
      "geometry": {
        "type": "Point",
        "coordinates": [394489.8819000004, 7171589.2139]
      },
      "properties": {
        "id": 748010012,
        "number": 169,
        "name": "Miilukankaan kivikautinen asuinpaikka",
        "municipality": "Siikajoki, Raahe",
        "region": "Pohjois-Pohjanmaa"
      }
    },
    {
      "type": "Feature",
      "geometry": {
        "type": "Point",
        "coordinates": [394318.9537000004, 7171357.313499998]
      },
      "properties": {
        "id": 582010033,
        "number": 169,
        "name": "Miilukankaan kivikautinen asuinpaikka",
        "municipality": "Siikajoki, Raahe",
        "region": "Pohjois-Pohjanmaa"
      }
    },
    {
      "type": "Feature",
      "geometry": {
        "type": "Point",
        "coordinates": [451287.9188000001, 7212500.945900001]
      },
      "properties": {
        "id": 973010051,
        "number": 170,
        "name": "Rekikylän kivikautinen asumuspainannealue",
        "municipality": "Oulu",
        "region": "Pohjois-Pohjanmaa"
      }
    },
    {
      "type": "Feature",
      "geometry": {
        "type": "Point",
        "coordinates": [571139.8095000004, 7176055.978399999]
      },
      "properties": {
        "id": 105010016,
        "number": 171,
        "name": "Koppeloniemen ja Vonkan esihistorialliset asuinpaikat",
        "municipality": "Hyrynsalmi",
        "region": "Kainuu"
      }
    },
    {
      "type": "Feature",
      "geometry": {
        "type": "Point",
        "coordinates": [571259.7664000001, 7174896.450300001]
      },
      "properties": {
        "id": 105010018,
        "number": 171,
        "name": "Koppeloniemen ja Vonkan esihistorialliset asuinpaikat",
        "municipality": "Hyrynsalmi",
        "region": "Kainuu"
      }
    },
    {
      "type": "Feature",
      "geometry": {
        "type": "Point",
        "coordinates": [571179.7927000001, 7174636.555100001]
      },
      "properties": {
        "id": 105010019,
        "number": 171,
        "name": "Koppeloniemen ja Vonkan esihistorialliset asuinpaikat",
        "municipality": "Hyrynsalmi",
        "region": "Kainuu"
      }
    },
    {
      "type": "Feature",
      "geometry": {
        "type": "Point",
        "coordinates": [574779.3318999996, 7178633.952]
      },
      "properties": {
        "id": 105010013,
        "number": 172,
        "name": "Likosuon rautahytti",
        "municipality": "Hyrynsalmi",
        "region": "Kainuu"
      }
    },
    {
      "type": "Feature",
      "geometry": {
        "type": "Point",
        "coordinates": [523009.35830000043, 7120898.0298000015]
      },
      "properties": {
        "id": 205010014,
        "number": 173,
        "name": "Myllyniemen pyyntikuoppaketju ja maakumpu",
        "municipality": "Kajaani",
        "region": "Kainuu"
      }
    },
    {
      "type": "Feature",
      "geometry": {
        "type": "Point",
        "coordinates": [522979.37310000043, 7121217.894200001]
      },
      "properties": {
        "id": 205010006,
        "number": 173,
        "name": "Myllyniemen pyyntikuoppaketju ja maakumpu",
        "municipality": "Kajaani",
        "region": "Kainuu"
      }
    },
    {
      "type": "Feature",
      "geometry": {
        "type": "Point",
        "coordinates": [596981, 7110376]
      },
      "properties": {
        "id": 290010052,
        "number": 174,
        "name": "Pajasaaren esihistoriallinen asuinpaikka ja historiallisen ajan raudanvalmistuspaikka",
        "municipality": "Kuhmo",
        "region": "Kainuu"
      }
    },
    {
      "type": "Feature",
      "geometry": {
        "type": "Point",
        "coordinates": [652230.2802999998, 7135607.5287999995]
      },
      "properties": {
        "id": 290010023,
        "number": 175,
        "name": "Saunaniemen ja Iso-Palosen esihistorialliset asuinpaikka- ja pyyntikuoppakohteet",
        "municipality": "Kuhmo",
        "region": "Kainuu"
      }
    },
    {
      "type": "Feature",
      "geometry": {
        "type": "Point",
        "coordinates": [651517.5658999998, 7135652.5086]
      },
      "properties": {
        "id": 290010024,
        "number": 175,
        "name": "Saunaniemen ja Iso-Palosen esihistorialliset asuinpaikka- ja pyyntikuoppakohteet",
        "municipality": "Kuhmo",
        "region": "Kainuu"
      }
    },
    {
      "type": "Feature",
      "geometry": {
        "type": "Point",
        "coordinates": [622481, 7114661]
      },
      "properties": {
        "id": 290010029,
        "number": 176,
        "name": "Sylväjänniemen esihistoriallinen asuinpaikka",
        "municipality": "Kuhmo",
        "region": "Kainuu"
      }
    },
    {
      "type": "Feature",
      "geometry": {
        "type": "Point",
        "coordinates": [623093, 7114840]
      },
      "properties": {
        "id": 290010030,
        "number": 176,
        "name": "Sylväjänniemen esihistoriallinen asuinpaikka",
        "municipality": "Kuhmo",
        "region": "Kainuu"
      }
    },
    {
      "type": "Feature",
      "geometry": {
        "type": "Point",
        "coordinates": [566921.7054000003, 7113731.060899999]
      },
      "properties": {
        "id": 765010010,
        "number": 177,
        "name": "Kiikarusniemen ja Ammonsaaren esihistorialliset asuinpaikat",
        "municipality": "Sotkamo",
        "region": "Kainuu"
      }
    },
    {
      "type": "Feature",
      "geometry": {
        "type": "Point",
        "coordinates": [566241.9814999998, 7113601.111200001]
      },
      "properties": {
        "id": 765010062,
        "number": 177,
        "name": "Kiikarusniemen ja Ammonsaaren esihistorialliset asuinpaikat",
        "municipality": "Sotkamo",
        "region": "Kainuu"
      }
    },
    {
      "type": "Feature",
      "geometry": {
        "type": "Point",
        "coordinates": [614403.2128999997, 7234017.7775]
      },
      "properties": {
        "id": 777010025,
        "number": 178,
        "name": "Kalmosärkän esihistoriallinen asuinpaikka",
        "municipality": "Suomussalmi",
        "region": "Kainuu"
      }
    },
    {
      "type": "Feature",
      "geometry": {
        "type": "Point",
        "coordinates": [635804.7363999998, 7185673.307700001]
      },
      "properties": {
        "id": 777010290,
        "number": 179,
        "name": "Keräsensalmen pyyntikuoppakohde",
        "municipality": "Suomussalmi",
        "region": "Kainuu"
      }
    },
    {
      "type": "Feature",
      "geometry": {
        "type": "Point",
        "coordinates": [592248.25, 7196454.829700001]
      },
      "properties": {
        "id": 777010109,
        "number": 180,
        "name": "Vanhan Kirkkosaaren kivikautinen asuinpaikka",
        "municipality": "Suomussalmi",
        "region": "Kainuu"
      }
    },
    {
      "type": "Feature",
      "geometry": {
        "type": "Point",
        "coordinates": [606466, 7267726]
      },
      "properties": {
        "id": 777010100,
        "number": 181,
        "name": "Värikallion kalliomaalaus",
        "municipality": "Suomussalmi",
        "region": "Kainuu"
      }
    },
    {
      "type": "Feature",
      "geometry": {
        "type": "Point",
        "coordinates": [500948.07710000034, 7170048.180100001]
      },
      "properties": {
        "id": 785010050,
        "number": 182,
        "name": "Lapinsalmen lapinpato",
        "municipality": "Vaala",
        "region": "Kainuu"
      }
    },
    {
      "type": "Feature",
      "geometry": {
        "type": "Point",
        "coordinates": [506585.9006000003, 7141769.573899999]
      },
      "properties": {
        "id": 785010051,
        "number": 183,
        "name": "Manamansalon Martinkannan pyyntikuoppakohde, Vanha hautausmaa ja Muinaiskirkon kivikautinen asuinpaikka",
        "municipality": "Vaala",
        "region": "Kainuu"
      }
    },
    {
      "type": "Feature",
      "geometry": {
        "type": "Point",
        "coordinates": [506662.8476999998, 7143394.8017]
      },
      "properties": {
        "id": 785010052,
        "number": 183,
        "name": "Manamansalon Martinkannan pyyntikuoppakohde, Vanha hautausmaa ja Muinaiskirkon kivikautinen asuinpaikka",
        "municipality": "Vaala",
        "region": "Kainuu"
      }
    },
    {
      "type": "Feature",
      "geometry": {
        "type": "Point",
        "coordinates": [506795.80989999976, 7143308.9575]
      },
      "properties": {
        "id": 785010041,
        "number": 183,
        "name": "Manamansalon Martinkannan pyyntikuoppakohde, Vanha hautausmaa ja Muinaiskirkon kivikautinen asuinpaikka",
        "municipality": "Vaala",
        "region": "Kainuu"
      }
    },
    {
      "type": "Feature",
      "geometry": {
        "type": "Point",
        "coordinates": [489002.92920000013, 7155214.104699999]
      },
      "properties": {
        "id": 785010006,
        "number": 184,
        "name": "Nimisjärven esihistorialliset asuinpaikat",
        "municipality": "Vaala",
        "region": "Kainuu"
      }
    },
    {
      "type": "Feature",
      "geometry": {
        "type": "Point",
        "coordinates": [489392.7739000004, 7155064.1719]
      },
      "properties": {
        "id": 785010007,
        "number": 184,
        "name": "Nimisjärven esihistorialliset asuinpaikat",
        "municipality": "Vaala",
        "region": "Kainuu"
      }
    },
    {
      "type": "Feature",
      "geometry": {
        "type": "Point",
        "coordinates": [489862.5848000003, 7154904.231199998]
      },
      "properties": {
        "id": 785010008,
        "number": 184,
        "name": "Nimisjärven esihistorialliset asuinpaikat",
        "municipality": "Vaala",
        "region": "Kainuu"
      }
    },
    {
      "type": "Feature",
      "geometry": {
        "type": "Point",
        "coordinates": [489952.5454000002, 7154984.1976]
      },
      "properties": {
        "id": 785010009,
        "number": 184,
        "name": "Nimisjärven esihistorialliset asuinpaikat",
        "municipality": "Vaala",
        "region": "Kainuu"
      }
    },
    {
      "type": "Feature",
      "geometry": {
        "type": "Point",
        "coordinates": [489952.54480000027, 7155164.126400001]
      },
      "properties": {
        "id": 785010010,
        "number": 184,
        "name": "Nimisjärven esihistorialliset asuinpaikat",
        "municipality": "Vaala",
        "region": "Kainuu"
      }
    },
    {
      "type": "Feature",
      "geometry": {
        "type": "Point",
        "coordinates": [490042.5133999996, 7155354.053800002]
      },
      "properties": {
        "id": 785010011,
        "number": 184,
        "name": "Nimisjärven esihistorialliset asuinpaikat",
        "municipality": "Vaala",
        "region": "Kainuu"
      }
    },
    {
      "type": "Feature",
      "geometry": {
        "type": "Point",
        "coordinates": [489932.5530000003, 7155903.8281]
      },
      "properties": {
        "id": 785010012,
        "number": 184,
        "name": "Nimisjärven esihistorialliset asuinpaikat",
        "municipality": "Vaala",
        "region": "Kainuu"
      }
    },
    {
      "type": "Feature",
      "geometry": {
        "type": "Point",
        "coordinates": [489532.7133999998, 7156103.7522]
      },
      "properties": {
        "id": 785010013,
        "number": 184,
        "name": "Nimisjärven esihistorialliset asuinpaikat",
        "municipality": "Vaala",
        "region": "Kainuu"
      }
    },
    {
      "type": "Feature",
      "geometry": {
        "type": "Point",
        "coordinates": [489070.5, 7156697.625]
      },
      "properties": {
        "id": 785010014,
        "number": 184,
        "name": "Nimisjärven esihistorialliset asuinpaikat",
        "municipality": "Vaala",
        "region": "Kainuu"
      }
    },
    {
      "type": "Feature",
      "geometry": {
        "type": "Point",
        "coordinates": [488663.06230000034, 7156653.524]
      },
      "properties": {
        "id": 785010015,
        "number": 184,
        "name": "Nimisjärven esihistorialliset asuinpaikat",
        "municipality": "Vaala",
        "region": "Kainuu"
      }
    },
    {
      "type": "Feature",
      "geometry": {
        "type": "Point",
        "coordinates": [489832.5937000001, 7154454.419199999]
      },
      "properties": {
        "id": 785010016,
        "number": 184,
        "name": "Nimisjärven esihistorialliset asuinpaikat",
        "municipality": "Vaala",
        "region": "Kainuu"
      }
    },
    {
      "type": "Feature",
      "geometry": {
        "type": "Point",
        "coordinates": [489862.5872999998, 7154154.531199999]
      },
      "properties": {
        "id": 785010017,
        "number": 184,
        "name": "Nimisjärven esihistorialliset asuinpaikat",
        "municipality": "Vaala",
        "region": "Kainuu"
      }
    },
    {
      "type": "Feature",
      "geometry": {
        "type": "Point",
        "coordinates": [490032.5147000002, 7154004.5978000015]
      },
      "properties": {
        "id": 785010018,
        "number": 184,
        "name": "Nimisjärven esihistorialliset asuinpaikat",
        "municipality": "Vaala",
        "region": "Kainuu"
      }
    },
    {
      "type": "Feature",
      "geometry": {
        "type": "Point",
        "coordinates": [489992.53589999955, 7153964.614599999]
      },
      "properties": {
        "id": 785010019,
        "number": 184,
        "name": "Nimisjärven esihistorialliset asuinpaikat",
        "municipality": "Vaala",
        "region": "Kainuu"
      }
    },
    {
      "type": "Feature",
      "geometry": {
        "type": "Point",
        "coordinates": [490382.38019999955, 7153954.617600001]
      },
      "properties": {
        "id": 785010020,
        "number": 184,
        "name": "Nimisjärven esihistorialliset asuinpaikat",
        "municipality": "Vaala",
        "region": "Kainuu"
      }
    },
    {
      "type": "Feature",
      "geometry": {
        "type": "Point",
        "coordinates": [489872.58019999973, 7154694.317699999]
      },
      "properties": {
        "id": 785010021,
        "number": 184,
        "name": "Nimisjärven esihistorialliset asuinpaikat",
        "municipality": "Vaala",
        "region": "Kainuu"
      }
    },
    {
      "type": "Feature",
      "geometry": {
        "type": "Point",
        "coordinates": [490182.4606999997, 7153954.616999999]
      },
      "properties": {
        "id": 785010022,
        "number": 184,
        "name": "Nimisjärven esihistorialliset asuinpaikat",
        "municipality": "Vaala",
        "region": "Kainuu"
      }
    },
    {
      "type": "Feature",
      "geometry": {
        "type": "Point",
        "coordinates": [501235, 7127688]
      },
      "properties": {
        "id": 940010011,
        "number": 185,
        "name": "Jataharjunnokan varhaismetallikautinen lapinraunio",
        "municipality": "Vuolijoki",
        "region": "Kainuu"
      }
    },
    {
      "type": "Feature",
      "geometry": {
        "type": "Point",
        "coordinates": [362582.6783999996, 7590968.6063]
      },
      "properties": {
        "id": 47010007,
        "number": 186,
        "name": "Jyppyrän pyyntikuopat",
        "municipality": "Enontekiö",
        "region": "Lappi"
      }
    },
    {
      "type": "Feature",
      "geometry": {
        "type": "Point",
        "coordinates": [307676.7153000003, 7604613.037700001]
      },
      "properties": {
        "id": 47010010,
        "number": 187,
        "name": "Markkinan esihistoriallisen ja historiallisen ajan muinaisjäännösalue",
        "municipality": "Enontekiö",
        "region": "Lappi"
      }
    },
    {
      "type": "Feature",
      "geometry": {
        "type": "Point",
        "coordinates": [360548.4606999997, 7613011.750999998]
      },
      "properties": {
        "id": 47010001,
        "number": 188,
        "name": "Näkkälän seitakivi",
        "municipality": "Enontekiö",
        "region": "Lappi"
      }
    },
    {
      "type": "Feature",
      "geometry": {
        "type": "Point",
        "coordinates": [503585.91000000015, 7642208.227000002]
      },
      "properties": {
        "id": 148010046,
        "number": 189,
        "name": "Nukkumajoen saamelainen talvikylä",
        "municipality": "Inari",
        "region": "Lappi"
      }
    },
    {
      "type": "Feature",
      "geometry": {
        "type": "Point",
        "coordinates": [461795.7418999998, 7623571.663400002]
      },
      "properties": {
        "id": 148010704,
        "number": 190,
        "name": "Seärihjoen-Härkäjärven pyyntikuoppaketju",
        "municipality": "Inari",
        "region": "Lappi"
      }
    },
    {
      "type": "Feature",
      "geometry": {
        "type": "Point",
        "coordinates": [462702.3799999999, 7624245.397999998]
      },
      "properties": {
        "id": 148010705,
        "number": 190,
        "name": "Seärihjoen-Härkäjärven pyyntikuoppaketju",
        "municipality": "Inari",
        "region": "Lappi"
      }
    },
    {
      "type": "Feature",
      "geometry": {
        "type": "Point",
        "coordinates": [463649.99899999984, 7624920.122699998]
      },
      "properties": {
        "id": 148010710,
        "number": 190,
        "name": "Seärihjoen-Härkäjärven pyyntikuoppaketju",
        "municipality": "Inari",
        "region": "Lappi"
      }
    },
    {
      "type": "Feature",
      "geometry": {
        "type": "Point",
        "coordinates": [462572.43200000003, 7624175.420000002]
      },
      "properties": {
        "id": 148010784,
        "number": 190,
        "name": "Seärihjoen-Härkäjärven pyyntikuoppaketju",
        "municipality": "Inari",
        "region": "Lappi"
      }
    },
    {
      "type": "Feature",
      "geometry": {
        "type": "Point",
        "coordinates": [463232.1666000001, 7624615.244800001]
      },
      "properties": {
        "id": 148010785,
        "number": 190,
        "name": "Seärihjoen-Härkäjärven pyyntikuoppaketju",
        "municipality": "Inari",
        "region": "Lappi"
      }
    },
    {
      "type": "Feature",
      "geometry": {
        "type": "Point",
        "coordinates": [451146.9785000002, 7656342.468600001]
      },
      "properties": {
        "id": 148010370,
        "number": 191,
        "name": "Siuttavaaran myöhäisrautakautiset kivilatomukset",
        "municipality": "Inari",
        "region": "Lappi"
      }
    },
    {
      "type": "Feature",
      "geometry": {
        "type": "Point",
        "coordinates": [511602.67310000025, 7647526.103599999]
      },
      "properties": {
        "id": 148010053,
        "number": 192,
        "name": "Ukonsaaren uhripaikka",
        "municipality": "Inari",
        "region": "Lappi"
      }
    },
    {
      "type": "Feature",
      "geometry": {
        "type": "Point",
        "coordinates": [525967.4045000002, 7387910.594900001]
      },
      "properties": {
        "id": 320010043,
        "number": 193,
        "name": "Ämmänvaaran palvontapaikka. kivikautinen asuinpaikka ja kvartsilouhos",
        "municipality": "Kemijärvi",
        "region": "Lappi"
      }
    },
    {
      "type": "Feature",
      "geometry": {
        "type": "Point",
        "coordinates": [386271.81120000035, 7298629.135000002]
      },
      "properties": {
        "id": 241010037,
        "number": 194,
        "name": "Valmarinniemen keskiaikaisten kirkkojen paikka ja kalmisto",
        "municipality": "Keminmaa",
        "region": "Lappi"
      }
    },
    {
      "type": "Feature",
      "geometry": {
        "type": "Point",
        "coordinates": [411429, 7509006]
      },
      "properties": {
        "id": 261010053,
        "number": 195,
        "name": "Kurjenpolven historiallisen ajan kalmisto",
        "municipality": "Kittilä",
        "region": "Lappi"
      }
    },
    {
      "type": "Feature",
      "geometry": {
        "type": "Point",
        "coordinates": [440220.5131999999, 7568440.796300001]
      },
      "properties": {
        "id": 261010041,
        "number": 196,
        "name": "Taatsin seita ja Taatsinkirkko",
        "municipality": "Kittilä",
        "region": "Lappi"
      }
    },
    {
      "type": "Feature",
      "geometry": {
        "type": "Point",
        "coordinates": [363746.37689999957, 7503606.7161]
      },
      "properties": {
        "id": 498010010,
        "number": 197,
        "name": "Pakasaivon palvontapaikka, 'Lapin helvetti' ja Kirkkopahdan seitakivi",
        "municipality": "Muonio",
        "region": "Lappi"
      }
    },
    {
      "type": "Feature",
      "geometry": {
        "type": "Point",
        "coordinates": [486633.43180000037, 7306293.320500001]
      },
      "properties": {
        "id": 683010108,
        "number": 198,
        "name": "Luiminkajärven kesähautasaaret - Palosaari ja Kalliosaari",
        "municipality": "Ranua",
        "region": "Lappi"
      }
    },
    {
      "type": "Feature",
      "geometry": {
        "type": "Point",
        "coordinates": [487333.16029999964, 7304064.218899999]
      },
      "properties": {
        "id": 683010083,
        "number": 198,
        "name": "Luiminkajärven kesähautasaaret - Palosaari ja Kalliosaari",
        "municipality": "Ranua",
        "region": "Lappi"
      }
    },
    {
      "type": "Feature",
      "geometry": {
        "type": "Point",
        "coordinates": [430585.9763000002, 7304443.919300001]
      },
      "properties": {
        "id": 751010040,
        "number": 199,
        "name": "Tainiaron kivikautinen asuinpaikka ja kalmisto",
        "municipality": "Simo",
        "region": "Lappi"
      }
    },
    {
      "type": "Feature",
      "geometry": {
        "type": "Point",
        "coordinates": [527920, 7501490]
      },
      "properties": {
        "id": 758010035,
        "number": 200,
        "name": "Kyläselän talvikylä",
        "municipality": "Sodankylä",
        "region": "Lappi"
      }
    },
    {
      "type": "Feature",
      "geometry": {
        "type": "Point",
        "coordinates": [396832.4621000001, 7336107.098099999]
      },
      "properties": {
        "id": 845010026,
        "number": 201,
        "name": "Törmävaaran kivikautinen asuinpaikka-alue",
        "municipality": "Tervola",
        "region": "Lappi"
      }
    },
    {
      "type": "Feature",
      "geometry": {
        "type": "Point",
        "coordinates": [396607.5513000004, 7336218.0583]
      },
      "properties": {
        "id": 845010030,
        "number": 201,
        "name": "Törmävaaran kivikautinen asuinpaikka-alue",
        "municipality": "Tervola",
        "region": "Lappi"
      }
    },
    {
      "type": "Feature",
      "geometry": {
        "type": "Point",
        "coordinates": [396503.59640000015, 7336123.0945000015]
      },
      "properties": {
        "id": 845010040,
        "number": 201,
        "name": "Törmävaaran kivikautinen asuinpaikka-alue",
        "municipality": "Tervola",
        "region": "Lappi"
      }
    },
    {
      "type": "Feature",
      "geometry": {
        "type": "Point",
        "coordinates": [396714.5126, 7336153.079799999]
      },
      "properties": {
        "id": 845010041,
        "number": 201,
        "name": "Törmävaaran kivikautinen asuinpaikka-alue",
        "municipality": "Tervola",
        "region": "Lappi"
      }
    },
    {
      "type": "Feature",
      "geometry": {
        "type": "Point",
        "coordinates": [396808.47279999964, 7336229.0469]
      },
      "properties": {
        "id": 845010042,
        "number": 201,
        "name": "Törmävaaran kivikautinen asuinpaikka-alue",
        "municipality": "Tervola",
        "region": "Lappi"
      }
    },
    {
      "type": "Feature",
      "geometry": {
        "type": "Point",
        "coordinates": [396294.6755999997, 7336153.078699999]
      },
      "properties": {
        "id": 845010047,
        "number": 201,
        "name": "Törmävaaran kivikautinen asuinpaikka-alue",
        "municipality": "Tervola",
        "region": "Lappi"
      }
    },
    {
      "type": "Feature",
      "geometry": {
        "type": "Point",
        "coordinates": [394707.3186999997, 7335829.200599998]
      },
      "properties": {
        "id": 845010048,
        "number": 201,
        "name": "Törmävaaran kivikautinen asuinpaikka-alue",
        "municipality": "Tervola",
        "region": "Lappi"
      }
    },
    {
      "type": "Feature",
      "geometry": {
        "type": "Point",
        "coordinates": [395261.0948999999, 7335882.1829]
      },
      "properties": {
        "id": 845010050,
        "number": 201,
        "name": "Törmävaaran kivikautinen asuinpaikka-alue",
        "municipality": "Tervola",
        "region": "Lappi"
      }
    },
    {
      "type": "Feature",
      "geometry": {
        "type": "Point",
        "coordinates": [375110.40299999993, 7288304.703000002]
      },
      "properties": {
        "id": 851010117,
        "number": 202,
        "name": "Iso-Huiturin Piispankivi",
        "municipality": "Tornio",
        "region": "Lappi"
      }
    },
    {
      "type": "Feature",
      "geometry": {
        "type": "Point",
        "coordinates": [378973.7270999998, 7303632.0995000005]
      },
      "properties": {
        "id": 851010002,
        "number": 203,
        "name": "Rakanmäen rautakautinen muinaisjäännösalue",
        "municipality": "Tornio",
        "region": "Lappi"
      }
    },
    {
      "type": "Feature",
      "geometry": {
        "type": "Point",
        "coordinates": [526816.3854, 7774035.2139]
      },
      "properties": {
        "id": 890010001,
        "number": 204,
        "name": "Ala-Jalven kivi- ja vathaismetallikautinen asuinpaikka",
        "municipality": "Utsjoki",
        "region": "Lappi"
      }
    },
    {
      "type": "Feature",
      "geometry": {
        "type": "Point",
        "coordinates": [518839.6026999997, 7768197.558400001]
      },
      "properties": {
        "id": 890010065,
        "number": 205,
        "name": "Välimaan museotila",
        "municipality": "Utsjoki",
        "region": "Lappi"
      }
    }
  ]
}
